business_id,business_name,business_address,business_city,business_state,business_postal_code,business_latitude,business_longitude,business_location,inspection_id,inspection_date,inspection_result,inspection_type,violation_id,violation_description,violation_critical
1428,LAKEWOOD COUNTRY CLUB,13901 GLEN MILL RD.,ROCKVILLE,MD,20850,39.083,-77.1944,"(39.083, -77.1944)",1428_2016-04-26,04/26/2016 12:00:00 AM,PASS,routine,,,
19125,JIREH RESTAURANT,706 UNIVERSITY BLVD. E.,SILVER SPRING,MD,20903,38.9991,-76.9946,"(38.9991, -76.9946)",19125_2015-06-02,06/02/2015 12:00:00 AM,PASS,routine,19125_2015-06-02_ColdHoldingTemperature(C),Standard not met: Cold Holding Temperature (C),true
20167,7-ELEVEN #39156,8472 PINEY BRANCH RD,SILVER SPRING,MD,20901,38.9983,-77.0045,"(38.9983, -77.0045)",20167_2016-02-09,02/09/2016 12:00:00 AM,PASS,routine,20167_2016-02-09_HotHoldingTemperature(C),Standard not met: Hot Holding Temperature (C),true
29383,CHIPOTLE MEXICAN GRILL #2781,20940-A NORTH FREDERICK AVE,GERMANTOWN,MD,20876,39.2034,-77.2484,"(39.2034, -77.2484)",29383_2016-06-27,06/27/2016 12:00:00 AM,PASS,initial,,,
1124,GUDE DRIVE EXXON,1215 E. GUDE DR.,ROCKVILLE,MD,20850,39.0976,-77.1372,"(39.0976, -77.1372)",1124_2016-11-22,11/22/2016 12:00:00 AM,PASS,routine,,,
19202,LA CHIQUITA CARRY OUT,940 EAST WEST HWY,TAKOMA PARK,MD,20912,38.9757,-76.9927,"(38.9757, -76.9927)",19202_2016-09-16,09/16/2016 12:00:00 AM,PASS,routine,19202_2016-09-16_RodentandInsects,Standard not met: Rodent and Insects,false
2286,SAMEN ENTERPRISE /SLIGO ADVENTIST SCHOOL,8300 CARROLL AVE.,TAKOMA PARK,MD,20912,38.9928,-76.9939,"(38.9928, -76.9939)",2286_2016-04-26,04/26/2016 12:00:00 AM,PASS,routine,2286_2016-04-26_HotHoldingTemperature(C),Standard not met: Hot Holding Temperature (C),true
17955,SILVER SPOON RESTAURANT,18530 WOODFIELD RD.,GAITHERSBURG,MD,20879,39.1608,-77.1591,"(39.1608, -77.1591)",17955_2015-04-16,04/16/2015 12:00:00 AM,PASS,routine,17955_2015-04-16_ColdHoldingTemperature(C),Standard not met: Cold Holding Temperature (C),true
19012,TOMATILLO MEXICAN GRILL,2232 VEIRS MILL RD,ROCKVILLE,MD,20851,39.0753,-77.1141,"(39.0753, -77.1141)",19012_2016-04-26,04/26/2016 12:00:00 AM,PASS,routine,,,
29152,VOCELLI PIZZA,730 CLOVERLY ST,SILVER SPRING,MD,20905,39.1096,-76.9956,"(39.1096, -76.9956)",29152_2017-01-18,01/18/2017 12:00:00 AM,PASS,routine,29152_2017-01-18_RodentandInsects,Standard not met: Rodent and Insects,false
29272,TOFU VILLAGE,12945 WISTERIA DR,GERMANTOWN,MD,20874,39.1783,-77.2699,"(39.1783, -77.2699)",29272_2016-02-22,02/22/2016 12:00:00 AM,PASS,initial,,,
19016,RAINBOW FELLOWSHIP ADULT DAY CARE,18901 WARING STATION RD,GERMANTOWN,MD,20874,39.1671,-77.2449,"(39.1671, -77.2449)",19016_2015-04-02,04/02/2015 12:00:00 AM,PASS,followup,,,
2425,SUSHI CHALET,323 MUDDY BRANCH RD.,GAITHERSBURG,MD,20878,39.1275,-77.2089,"(39.1275, -77.2089)",2425_2016-09-15,09/15/2016 12:00:00 AM,PASS,routine,2425_2016-09-15_HotHoldingTemperature(C),Standard not met: Hot Holding Temperature (C),true
29220,JASON'S SUB SHOP,916 EAST WEST HWY,TAKOMA PARK,MD,20912,38.9756,-76.9932,"(38.9756, -76.9932)",29220_2016-09-16,09/16/2016 12:00:00 AM,FAIL,routine,29220_2016-09-16_ColdHoldingTemperature(C),Standard not met: Cold Holding Temperature (C),true
19016,RAINBOW FELLOWSHIP ADULT DAY CARE,18901 WARING STATION RD,GERMANTOWN,MD,20874,39.1671,-77.2449,"(39.1671, -77.2449)",19016_2016-08-04,08/04/2016 12:00:00 AM,PASS,complaint,19016_2016-08-04_FoodProtectedfromContamination(C),Standard not met: Food Protected from Contamination (C),true
19408,GHAR-E-KABOB INDIAN CUISINE,944 WAYNE AVE.,SILVER SPRING,MD,20910,38.9943,-77.0256,"(38.9943, -77.0256)",19408_2016-11-21,11/21/2016 12:00:00 AM,PASS,routine,,,
18839,THAI TANIUM RESTAURANT,657 CENTER POINT WAY,GAITHERSBURG,MD,20878,39.1217,-77.2348,"(39.1217, -77.2348)",18839_2016-11-22,11/22/2016 12:00:00 AM,PASS,routine,,,
514,CHICKEN BASKET,5058-B NICHOLSON LN.,ROCKVILLE,MD,20852,39.0457,-77.1039,"(39.0457, -77.1039)",514_2017-01-20,01/20/2017 12:00:00 AM,PASS,routine,514_2017-01-20_RodentandInsects,Standard not met: Rodent and Insects,false
1415,LA MADELEINE FRENCH BAKERY & CAFE,7607 OLD GEORGETOWN RD.,BETHESDA,MD,20814,38.9859,-77.0957,"(38.9859, -77.0957)",1415_2016-09-12,09/12/2016 12:00:00 AM,PASS,complaint,1415_2016-09-12_ColdHoldingTemperature(C),Standard not met: Cold Holding Temperature (C),true
1858,PAPA JOHN'S PIZZA #0668,11522 MIDDLEBROOK RD.,GERMANTOWN,MD,20876,39.1794,-77.2391,"(39.1794, -77.2391)",1858_2017-01-22,01/22/2017 12:00:00 AM,PASS,routine,,,
27885,ISMETS MARKET,460 N FREDERICK AVE #28B,GAITHERSBURG,MD,20877,39.1484,-77.2069,"(39.1484, -77.2069)",27885_2016-01-12,01/12/2016 12:00:00 AM,PASS,routine,,,
24104,"PALISADES SWIMMING POOL ASSN, INC",6918 SEVEN LOCKS RD,CABIN JOHN,MD,20818,38.9792,-77.1609,"(38.9792, -77.1609)",24104_2015-05-19,05/19/2015 12:00:00 AM,PASS,initial,,,
30114,GRILL KABOB,11160 VEIRS MILL RD,SILVER SPRING,MD,20902,39.037,-77.0539,"(39.037, -77.0539)",30114_2016-12-21,12/21/2016 12:00:00 AM,PASS,initial,,,
28825,LANDOW HOUSE,1799 E. JEFFERSON ST,ROCKVILLE,MD,20852,39.0563,-77.1279,"(39.0563, -77.1279)",28825_2017-01-20,01/20/2017 12:00:00 AM,PASS,routine,28825_2017-01-20_ReheatingTimeandTemperature(C),Standard not met: Reheating Time and Temperature (C),true
19386,FLOWER HILL LIBERTY,18267 FLOWER HILL WAY,GAITHERSBURG,MD,20879,39.1568,-77.1635,"(39.1568, -77.1635)",19386_2015-06-25,06/25/2015 12:00:00 AM,PASS,routine,,,
28851,MCDONALD'S #31300,11160 VEIRS MILL RD,SILVER SPRING,MD,20902,39.037,-77.0539,"(39.037, -77.0539)",28851_2015-03-18,03/18/2015 12:00:00 AM,PASS,routine,,,
19027,HOLIDAY INN - GAITHERSBURG,2 MONTGOMERY VILLAGE AVE,GAITHERSBURG,MD,20879,39.1538,-77.2118,"(39.1538, -77.2118)",19027_2017-01-20,01/20/2017 12:00:00 AM,PASS,routine,19027_2017-01-20_TransFatBan,Standard not met: Trans Fat Ban,false
1206,HUGHES NETWORK SYSTEMS,11717 EXPLORATION LN.,GERMANTOWN,MD,20876,39.1793,-77.2446,"(39.1793, -77.2446)",1206_2016-09-16,09/16/2016 12:00:00 AM,PASS,routine,1206_2016-09-16_ColdHoldingTemperature(C),Standard not met: Cold Holding Temperature (C),true
28311,CHIPOTLE MEXICAN GRILL #2388,7101 DEMOCRACY BLVD,BETHESDA,MD,20814,39.0221,-77.1471,"(39.0221, -77.1471)",28311_2015-09-03,09/03/2015 12:00:00 AM,PASS,routine,28311_2015-09-03_ColdHoldingTemperature(C),Standard not met: Cold Holding Temperature (C),true
27838,HARRIS TEETER #384,323 COPLEY PLACE,GAITHERSBURG,MD,20878,39.1149,-77.2077,"(39.1149, -77.2077)",27838_2016-01-05,01/05/2016 12:00:00 AM,PASS,followup,,,
26789,UNION JACKS,9811 WASHINGTONIAN BLVD,GAITHERSBURG,MD,20878,39.1158,-77.1976,"(39.1158, -77.1976)",26789_2016-11-21,11/21/2016 12:00:00 AM,PASS,routine,26789_2016-11-21_ColdHoldingTemperature(C),Standard not met: Cold Holding Temperature (C),true
1875,PARKWAY EATERY,2161 INDUSTRIAL PKWY.,SILVER SPRING,MD,20904,39.0526,-76.9677,"(39.0526, -76.9677)",1875_2015-07-23,07/23/2015 12:00:00 AM,PASS,routine,,,
273,BEVERLY FARMS ELEMENTARY,8501 POSTOAK RD.,POTOMAC,MD,20854,39.0521,-77.1763,"(39.0521, -77.1763)",273_2016-04-27,04/27/2016 12:00:00 AM,PASS,routine,,,
26739,JENNY'S EXPRESS,2571 ENNALLS AVE,SILVER SPRING,MD,20902,39.0398,-77.0544,"(39.0398, -77.0544)",26739_2016-11-22,11/22/2016 12:00:00 AM,PASS,routine,,,
2768,LEDO PIZZA - DARNESTOWN RD,10058 DARNESTOWN RD.,ROCKVILLE,MD,20850,39.0966,-77.2046,"(39.0966, -77.2046)",2768_2016-04-26,04/26/2016 12:00:00 AM,PASS,routine,,,
2633,WENDY'S #109,14012 CONNECTICUT AVE.,SILVER SPRING,MD,20906,39.0847,-77.0767,"(39.0847, -77.0767)",2633_2015-11-10,11/10/2015 12:00:00 AM,PASS,routine,2633_2015-11-10_ProperHandWashing(C),Standard not met: Proper Hand Washing (C),true
27874,ASIA NINE,254 CROWN PARK AVE,GAITHERSBURG,MD,20878,39.1141,-77.2045,"(39.1141, -77.2045)",27874_2016-03-17,03/17/2016 12:00:00 AM,PASS,routine,,,
20998,HOME DEPOT #2509,7111 WESTLAKE TERRACE,BETHESDA,MD,20817,39.0273,-77.1448,"(39.0273, -77.1448)",20998_2016-11-22,11/22/2016 12:00:00 AM,PASS,routine,,,
2370,STEDWICK ELEMENTARY,10631 STEDWICK RD.,GAITHERSBURG,MD,20886,39.1742,-77.211,"(39.1742, -77.211)",2370_2016-09-16,09/16/2016 12:00:00 AM,PASS,,,,
27522,LA MADELEINE,242 CROWN PARK AVE,GAITHERSBURG,MD,20878,39.1143,-77.2046,"(39.1143, -77.2046)",27522_2015-10-23,10/23/2015 12:00:00 AM,PASS,routine,,,
17075,PAPA JOHN'S PIZZA #2809,3227 SPARTAN RD.,OLNEY,MD,20832,39.1505,-77.0631,"(39.1505, -77.0631)",17075_2015-10-05,10/05/2015 12:00:00 AM,PASS,routine,17075_2015-10-05_RodentandInsects,Standard not met: Rodent and Insects,false
21247,7501 CAFE C/O SODEXO,7501 WISCONSIN AVE STE 100E,BETHESDA,MD,20814,38.9851,-77.093,"(38.9851, -77.093)",21247_2015-12-03,12/03/2015 12:00:00 AM,PASS,routine,,,
19054,WEST DELI,30 W. GUDE DR.,ROCKVILLE,MD,20850,39.1056,-77.1596,"(39.1056, -77.1596)",19054_2015-12-17,12/17/2015 12:00:00 AM,PASS,routine,,,
2417,SUNSHINE GENERAL STORE,22300 GEORGIA AVE.,BROOKEVILLE,MD,20833,39.2221,-77.06,"(39.2221, -77.06)",2417_2015-06-29,06/29/2015 12:00:00 AM,PASS,routine,2417_2015-06-29_RodentandInsects,Standard not met: Rodent and Insects,false
11249,CASEY HOUSE,6001 MUNCASTER MILL RD.,ROCKVILLE,MD,20853,39.1334,-77.1213,"(39.1334, -77.1213)",11249_2015-03-13,03/13/2015 12:00:00 AM,PASS,routine,,,
553,CHINATOWN RESTAURANT,1163 UNIVERSITY BLVD. E.,TAKOMA PARK,MD,20903,38.9888,-76.9895,"(38.9888, -76.9895)",553_2016-04-25,04/25/2016 12:00:00 AM,PASS,routine,,,
17483,HUNAN DELIGHT,18220 VILLAGE CENTER DR.,OLNEY,MD,20832,39.1538,-77.0646,"(39.1538, -77.0646)",17483_2015-03-27,03/27/2015 12:00:00 AM,PASS,routine,17483_2015-03-27_FoodProtectedfromContamination(C),Standard not met: Food Protected from Contamination (C),true
24389,EL POLLO RICO,211G N. FREDERICK AVE,GAITHERSBURG,MD,20877,39.1446,-77.2015,"(39.1446, -77.2015)",24389_2015-03-25,03/25/2015 12:00:00 AM,PASS,routine,24389_2015-03-25_TransFatBan,Standard not met: Trans Fat Ban,false
26771,MIELE BAKERY,9613-C MEDICAL CENTER DR,ROCKVILLE,MD,20850,39.1022,-77.1967,"(39.1022, -77.1967)",26771_2016-09-14,09/14/2016 12:00:00 AM,PASS,routine,26771_2016-09-14_RodentandInsects,Standard not met: Rodent and Insects,false
18199,7-ELEVEN #27669,19786 CRYSTAL ROCK DR.,GERMANTOWN,MD,20874,39.1801,-77.2622,"(39.1801, -77.2622)",18199_2015-06-25,06/25/2015 12:00:00 AM,PASS,routine,,,
28389,TED'S BULLETIN,220 ELLINGTON BLVD,GAITHERSBURG,MD,20878,39.1143,-77.2054,"(39.1143, -77.2054)",28389_2016-03-30,03/30/2016 12:00:00 AM,PASS,routine,28389_2016-03-30_HotHoldingTemperature(C),Standard not met: Hot Holding Temperature (C),true
18927,SLIGO GOLF COURSE SNACK BAR,9701 SLIGO CREEK PKWY.,SILVER SPRING,MD,20901,39.0141,-77.0303,"(39.0141, -77.0303)",18927_2016-04-26,04/26/2016 12:00:00 AM,PASS,routine,,,
29116,BARKING MAD CAFE,239 SPECTRUM AVE,GAITHERSBURG,MD,20879,39.16,-77.2222,"(39.16, -77.2222)",29116_2017-01-20,01/20/2017 12:00:00 AM,PASS,routine,29116_2017-01-20_ColdHoldingTemperature(C),Standard not met: Cold Holding Temperature (C),true
23526,RUBY THAI KITCHEN,11160 VEIRS MILL RD.,WHEATON,MD,20902,39.037,-77.0539,"(39.037, -77.0539)",23526_2016-02-26,02/26/2016 12:00:00 AM,PASS,routine,23526_2016-02-26_RodentandInsects,Standard not met: Rodent and Insects,false
22313,POLLO-MEX,13436 NEW HAMPSHIRE AVE,SILVER SPRING,MD,20904,39.0768,-77.0026,"(39.0768, -77.0026)",22313_2015-10-20,10/20/2015 12:00:00 AM,PASS,routine,,,
28311,CHIPOTLE MEXICAN GRILL #2388,7101 DEMOCRACY BLVD,BETHESDA,MD,20814,39.0221,-77.1471,"(39.0221, -77.1471)",28311_2016-09-09,09/09/2016 12:00:00 AM,PASS,routine,28311_2016-09-09_ColdHoldingTemperature(C),Standard not met: Cold Holding Temperature (C),true
27946,RED ROOSTER,10005 DAMASCUS BLVD,DAMASCUS,MD,20872,39.2878,-77.2063,"(39.2878, -77.2063)",27946_2017-01-19,01/19/2017 12:00:00 AM,PASS,routine,27946_2017-01-19_ColdHoldingTemperature(C),Standard not met: Cold Holding Temperature (C),true
1035,GERMAN SCHOOL,8617 CHATEAU DR.,POTOMAC,MD,20854,39.011,-77.1778,"(39.011, -77.1778)",1035_2016-04-22,04/22/2016 12:00:00 AM,PASS,routine,,,
20679,GOOD FORTUNE CAFE,237 A KENTLANDS BLVD.,GAITHERSBURG,MD,20878,39.1252,-77.2392,"(39.1252, -77.2392)",20679_2016-11-21,11/21/2016 12:00:00 AM,PASS,complaint,,,
1916,4 U,8120 PINEY BRANCH RD.,SILVER SPRING,MD,20910,38.9927,-77.0099,"(38.9927, -77.0099)",1916_2015-09-02,09/02/2015 12:00:00 AM,PASS,routine,,,
1453,LEDO PIZZA - OLNEY,3472 OLNEY-LAYTONSVILLE RD.,OLNEY,MD,20832,39.1532,-77.0687,"(39.1532, -77.0687)",1453_2015-04-16,04/16/2015 12:00:00 AM,PASS,routine,1453_2015-04-16_RodentandInsects,Standard not met: Rodent and Insects,false
28021,PHO D'LITE,2159 INDUSTRIAL PKWY,SILVER SPRING,MD,20904,39.0527,-76.9679,"(39.0527, -76.9679)",28021_2015-09-24,09/24/2015 12:00:00 AM,PASS,routine,28021_2015-09-24_ColdHoldingTemperature(C),Standard not met: Cold Holding Temperature (C),true
17812,TAIPEI TOKYO,14921-D SHADY GROVE RD.,ROCKVILLE,MD,20850,39.0967,-77.1932,"(39.0967, -77.1932)",17812_2016-09-14,09/14/2016 12:00:00 AM,PASS,routine,17812_2016-09-14_ColdHoldingTemperature(C),Standard not met: Cold Holding Temperature (C),true
28184,ROTI MEDITERRANEAN GRILL,11586 OLD GEORGETOWN RD,ROCKVILLE,MD,20852,39.049,-77.1178,"(39.049, -77.1178)",28184_2016-06-27,06/27/2016 12:00:00 AM,PASS,routine,,,
26771,MIELE BAKERY,9613-C MEDICAL CENTER DR,ROCKVILLE,MD,20850,39.1022,-77.1967,"(39.1022, -77.1967)",26771_2016-09-14,09/14/2016 12:00:00 AM,PASS,routine,26771_2016-09-14_ColdHoldingTemperature(C),Standard not met: Cold Holding Temperature (C),true
27378,TRAPEZARIA MEDITERRANEAN KUZINA,11 N. WASHINGTON ST,ROCKVILLE,MD,20850,39.0847,-77.1525,"(39.0847, -77.1525)",27378_2015-03-21,03/21/2015 12:00:00 AM,PASS,routine,,,
20672,NEW KAM FONG RESTAURANT,2400 W. UNIVERSITY BLVD.,SILVER SPRING,MD,209024510,39.0414,-77.0505,"(39.0414, -77.0505)",20672_2016-11-22,11/22/2016 12:00:00 AM,FAIL,routine,20672_2016-11-22_ColdHoldingTemperature(C),Standard not met: Cold Holding Temperature (C),true
30114,GRILL KABOB,11160 VEIRS MILL RD,SILVER SPRING,MD,20902,39.037,-77.0539,"(39.037, -77.0539)",30114_2017-01-12,01/12/2017 12:00:00 AM,PASS,initial,,,
17133,BURGER KING,9936 MAIN ST.,DAMASCUS,MD,20872,39.288,-77.2058,"(39.288, -77.2058)",17133_2017-01-20,01/20/2017 12:00:00 AM,PASS,routine,,,
1035,GERMAN SCHOOL,8617 CHATEAU DR.,POTOMAC,MD,20854,39.011,-77.1778,"(39.011, -77.1778)",1035_2015-04-27,04/27/2015 12:00:00 AM,PASS,routine,,,
27701,SUNSPOT CAFE,10411 MOTOR CITY DR,BETHESDA,MD,20817,39.0279,-77.1427,"(39.0279, -77.1427)",27701_2017-01-19,01/19/2017 12:00:00 AM,PASS,routine,,,
19408,GHAR-E-KABOB INDIAN CUISINE,944 WAYNE AVE.,SILVER SPRING,MD,20910,38.9943,-77.0256,"(38.9943, -77.0256)",19408_2015-03-10,03/10/2015 12:00:00 AM,PASS,routine,19408_2015-03-10_CoolingTimeandTemperature(C),Standard not met: Cooling Time and Temperature (C),true
20684,MANNA FOOD CENTER,9311 GAITHER RD.,GAITHERSBURG,MD,20877,39.1185,-77.1918,"(39.1185, -77.1918)",20684_2016-02-09,02/09/2016 12:00:00 AM,PASS,routine,,,
273,BEVERLY FARMS ELEMENTARY,8501 POSTOAK RD.,POTOMAC,MD,20854,39.0521,-77.1763,"(39.0521, -77.1763)",273_2015-10-08,10/08/2015 12:00:00 AM,PASS,routine,,,
2615,WASHINGTON-ROCKVILLE ELKS #15,5 TAFT CT,ROCKVILLE,MD,20850,39.0958,-77.1304,"(39.0958, -77.1304)",2615_2016-11-22,11/22/2016 12:00:00 AM,PASS,routine,,,
17801,KELLY'S CAJUN GRILL,701 RUSSELL AVE.,GAITHERSBURG,MD,20877,39.1534,-77.204,"(39.1534, -77.204)",17801_2017-01-20,01/20/2017 12:00:00 AM,PASS,routine,17801_2017-01-20_CoolingTimeandTemperature(C),Standard not met: Cooling Time and Temperature (C),true
27522,LA MADELEINE,242 CROWN PARK AVE,GAITHERSBURG,MD,20878,39.1143,-77.2046,"(39.1143, -77.2046)",27522_2015-03-25,03/25/2015 12:00:00 AM,PASS,routine,,,
27983,YOGIBERRY,230 CROWN PARK AVE,GAITHERSBURG,MD,20878,39.1144,-77.2048,"(39.1144, -77.2048)",27983_2015-11-19,11/19/2015 12:00:00 AM,PASS,routine,27983_2015-11-19_ColdHoldingTemperature(C),Standard not met: Cold Holding Temperature (C),true
28028,&PIZZA,258 CROWN PARK AVE,GAITHERSBURG,MD,20878,39.114,-77.2044,"(39.114, -77.2044)",28028_2015-09-14,09/14/2015 12:00:00 AM,PASS,routine,28028_2015-09-14_ColdHoldingTemperature(C),Standard not met: Cold Holding Temperature (C),true
28830,RETRO FITNESS,5238 NICHOLSON LANE,KENSINGTON,MD,20895,39.0433,-77.1064,"(39.0433, -77.1064)",28830_2016-06-30,06/30/2016 12:00:00 AM,PASS,routine,,,
11421,AMERICAN LEGION  #171,10201 LEWIS DR.,DAMASCUS,MD,20872,39.2922,-77.2125,"(39.2922, -77.2125)",11421_2016-11-22,11/22/2016 12:00:00 AM,PASS,routine,,,
24268,HILLANDALE SHELL,10201 NEW HAMPSHIRE AVE,SILVER SPRING,MD,20903,39.0231,-76.9776,"(39.0231, -76.9776)",24268_2015-08-11,08/11/2015 12:00:00 AM,PASS,routine,,,
28348,BLENDED,314 COPLEY PLACE,GAITHERSBURG,MD,20878,39.1145,-77.2064,"(39.1145, -77.2064)",28348_2015-11-10,11/10/2015 12:00:00 AM,PASS,routine,,,
22750,SUGO MACARONI BAR - PARK POTOMAC,12505 PARK POTOMAC AVE. STE. 110,POTOMAC,MD,20854,39.0603,-77.1568,"(39.0603, -77.1568)",22750_2017-01-19,01/19/2017 12:00:00 AM,PASS,routine,22750_2017-01-19_FoodProtectedfromContamination(C),Standard not met: Food Protected from Contamination (C),true
29224,CHIPOTLE MEXICAN GRILL #2668,10161 NEW HAMPSHIRE AVE,SILVER SPRING,MD,20903,39.0219,-76.9765,"(39.0219, -76.9765)",29224_2016-05-11,05/11/2016 12:00:00 AM,PASS,routine,,,
29179,NANDO'S PERI PERI,11160 VEIRS MILL RD,SILVER SPRING,MD,20902,39.037,-77.0539,"(39.037, -77.0539)",29179_2015-12-03,12/03/2015 12:00:00 AM,PASS,initial,,,
18973,"MUSIC CAFï¿½, THE",26528-B RIDGE RD.,DAMASCUS,MD,20872,39.291,-77.2058,"(39.291, -77.2058)",18973_2017-01-20,01/20/2017 12:00:00 AM,PASS,routine,,,
27857,CHOP'T CREATIVE SALAD CO,238 CROWN PARK AVE,GAITHERSBURG,MD,20878,39.1126,-77.2027,"(39.1126, -77.2027)",27857_2015-10-20,10/20/2015 12:00:00 AM,PASS,routine,,,
171,B'NAI B'RITH HOMECREST HOUSE STORE,14508 HOMECREST RD.,SILVER SPRING,MD,20906,39.094,-77.0631,"(39.094, -77.0631)",171_2015-06-24,06/24/2015 12:00:00 AM,PASS,,,,
950,FORTUNE GARDEN RESTAURANT,9812 FALLS RD.,POTOMAC,MD,20854,39.0172,-77.2106,"(39.0172, -77.2106)",950_2016-06-29,06/29/2016 12:00:00 AM,PASS,routine,950_2016-06-29_ColdHoldingTemperature(C),Standard not met: Cold Holding Temperature (C),true
26613,SAM'S CLUB 6653,610 N. FREDERICK AVE,GAITHERSBURG,MD,20877,39.1515,-77.2126,"(39.1515, -77.2126)",26613_2016-03-22,03/22/2016 12:00:00 AM,PASS,routine,26613_2016-03-22_RodentandInsects,Standard not met: Rodent and Insects,false
29136,MCDONALD'S SILVER SPRING CENTER,8637 16TH ST,SILVER SPRING,MD,20906,38.9985,-77.0383,"(38.9985, -77.0383)",29136_2016-09-15,09/15/2016 12:00:00 AM,PASS,routine,29136_2016-09-15_ColdHoldingTemperature(C),Standard not met: Cold Holding Temperature (C),true
11714,LA BAMBA,8241 GEORGIA AVE.,SILVER SPRING,MD,20910,38.9928,-77.026,"(38.9928, -77.026)",11714_2017-01-19,01/19/2017 12:00:00 AM,PASS,routine,11714_2017-01-19_RodentandInsects,Standard not met: Rodent and Insects,false
27918,730 SLIGO BEER & WINE,730 SLIGO AVE,SILVER SPRING,MD,20910,38.9899,-77.0194,"(38.9899, -77.0194)",27918_2015-10-30,10/30/2015 12:00:00 AM,PASS,routine,27918_2015-10-30_RodentandInsects,Standard not met: Rodent and Insects,false
30007,POCKET BAR AND GRILL,15535 NEW HAMPSHIRE AVE,SILVER SPRING,MD,20905,39.1108,-76.9923,"(39.1108, -76.9923)",30007_2016-08-23,08/23/2016 12:00:00 AM,PASS,initial,30007_2016-08-23_RodentandInsects,Standard not met: Rodent and Insects,false
379,BURGER KING #5882,3870 INTERNATIONAL DR.,SILVER SPRING,MD,20906,39.1025,-77.0762,"(39.1025, -77.0762)",379_2017-01-11,01/11/2017 12:00:00 AM,PASS,routine,379_2017-01-11_ColdHoldingTemperature(C),Standard not met: Cold Holding Temperature (C),true
21086,EMPIRE CAFE & MARKET,22301  GEORGIA AVE.,BROOKEVILLE,MD,20833,39.2216,-77.0592,"(39.2216, -77.0592)",21086_2017-01-20,01/20/2017 12:00:00 AM,PASS,routine,,,
17800,MICHAEL'S NOODLES,10038 DARNESTOWN RD.,ROCKVILLE,MD,20850,39.0956,-77.2067,"(39.0956, -77.2067)",17800_2016-04-26,04/26/2016 12:00:00 AM,PASS,routine,,,
413,CALIFORNIA PIZZA KITCHEN,7101 DEMOCRACY BLVD.,BETHESDA,MD,20817,39.0233,-77.1486,"(39.0233, -77.1486)",413_2016-11-22,11/22/2016 12:00:00 AM,PASS,routine,,,
28777,CLOVERLY AUTO CARE,15501 NEW HAMPSHIRE AVE,SILVER SPRING,MD,20905,39.1099,-76.9962,"(39.1099, -76.9962)",28777_2017-01-18,01/18/2017 12:00:00 AM,PASS,routine,,,
28311,CHIPOTLE MEXICAN GRILL #2388,7101 DEMOCRACY BLVD,BETHESDA,MD,20814,39.0221,-77.1471,"(39.0221, -77.1471)",28311_2016-03-08,03/08/2016 12:00:00 AM,PASS,complaint,28311_2016-03-08_ColdHoldingTemperature(C),Standard not met: Cold Holding Temperature (C),true
28470,NEW YORK MART,15108 FREDERICK RD,ROCKVILLE,MD,20850,39.103,-77.158,"(39.103, -77.158)",28470_2016-09-16,09/16/2016 12:00:00 AM,PASS,followup,,,
20672,NEW KAM FONG RESTAURANT,2400 W. UNIVERSITY BLVD.,SILVER SPRING,MD,209024510,39.0414,-77.0505,"(39.0414, -77.0505)",20672_2016-11-22,11/22/2016 12:00:00 AM,FAIL,routine,20672_2016-11-22_TransFatBan,Standard not met: Trans Fat Ban,false
17218,CHARLES E. SMITH JEWISH DAY SCHOOL,1901 E. JEFFERSON ST.,ROCKVILLE,MD,20852,39.0544,-77.1271,"(39.0544, -77.1271)",17218_2015-10-14,10/14/2015 12:00:00 AM,PASS,routine,17218_2015-10-14_ColdHoldingTemperature(C),Standard not met: Cold Holding Temperature (C),true
1206,HUGHES NETWORK SYSTEMS,11717 EXPLORATION LN.,GERMANTOWN,MD,20876,39.1793,-77.2446,"(39.1793, -77.2446)",1206_2016-09-16,09/16/2016 12:00:00 AM,PASS,routine,1206_2016-09-16_RodentandInsects,Standard not met: Rodent and Insects,false
18757,CREPES A GO GO,514 MAIN ST.,GAITHERSBURG,MD,20878,39.1212,-77.2348,"(39.1212, -77.2348)",18757_2016-11-22,11/22/2016 12:00:00 AM,PASS,routine,18757_2016-11-22_RodentandInsects,Standard not met: Rodent and Insects,false
27874,ASIA NINE,254 CROWN PARK AVE,GAITHERSBURG,MD,20878,39.1141,-77.2045,"(39.1141, -77.2045)",27874_2015-04-10,04/10/2015 12:00:00 AM,PASS,routine,27874_2015-04-10_No-SmokingSignPosted,Standard not met: No-Smoking Sign Posted,false
379,BURGER KING #5882,3870 INTERNATIONAL DR.,SILVER SPRING,MD,20906,39.1025,-77.0762,"(39.1025, -77.0762)",379_2016-01-06,01/06/2016 12:00:00 AM,PASS,routine,,,
17338,HILLANDALE SWIM & TENNIS POOL SNACK BAR,10116 GREEN FOREST DR.,SILVER SPRING,MD,20903,39.0206,-76.9708,"(39.0206, -76.9708)",17338_2016-06-30,06/30/2016 12:00:00 AM,PASS,routine,,,
22588,SLIGO ADVENTIST SCHOOL,8300 CARROLL AVE.,TAKOMA PARK,MD,20912,38.9928,-76.9939,"(38.9928, -76.9939)",22588_2016-04-26,04/26/2016 12:00:00 AM,PASS,routine,22588_2016-04-26_HotHoldingTemperature(C),Standard not met: Hot Holding Temperature (C),true
22729,MANNY'S PIZZA & SUB SHOP,10592 METROPOLITAN AVE. STE.A,KENSINGTON,MD,20895,39.0291,-77.0749,"(39.0291, -77.0749)",22729_2016-06-29,06/29/2016 12:00:00 AM,PASS,routine,,,
27874,ASIA NINE,254 CROWN PARK AVE,GAITHERSBURG,MD,20878,39.1141,-77.2045,"(39.1141, -77.2045)",27874_2015-04-10,04/10/2015 12:00:00 AM,PASS,routine,27874_2015-04-10_TransFatBan,Standard not met: Trans Fat Ban,false
29007,VONIKS JUICE,202 ELLINGTON BLVD,GAITHERSBURG,MD,20878,39.1146,-77.2048,"(39.1146, -77.2048)",29007_2015-12-02,12/02/2015 12:00:00 AM,PASS,followup,,,
28311,CHIPOTLE MEXICAN GRILL #2388,7101 DEMOCRACY BLVD,BETHESDA,MD,20814,39.0221,-77.1471,"(39.0221, -77.1471)",28311_2015-04-17,04/17/2015 12:00:00 AM,PASS,routine,28311_2015-04-17_ColdHoldingTemperature(C),Standard not met: Cold Holding Temperature (C),true
27874,ASIA NINE,254 CROWN PARK AVE,GAITHERSBURG,MD,20878,39.1141,-77.2045,"(39.1141, -77.2045)",27874_2015-04-10,04/10/2015 12:00:00 AM,PASS,routine,27874_2015-04-10_RodentandInsects,Standard not met: Rodent and Insects,false
27468,WEGMANS,20600 SENECA MEADOWS PKWY,GERMANTOWN,MD,20876,39.1962,-77.2588,"(39.1962, -77.2588)",27468_2016-01-06,01/06/2016 12:00:00 AM,PASS,routine,,,
27468,WEGMANS,20600 SENECA MEADOWS PKWY,GERMANTOWN,MD,20876,39.1962,-77.2588,"(39.1962, -77.2588)",27468_2016-01-06,01/06/2016 12:00:00 AM,PASS,routine,,,
29277,TARA THAI,7101 DEMOCRACY BLVD,BETHESDA,MD,20817,39.0258,-77.1476,"(39.0258, -77.1476)",29277_2016-11-22,11/22/2016 12:00:00 AM,PASS,routine,,,
1800,OLD ANGLER'S INN,10801 MAC ARTHUR BLVD.,POTOMAC,MD,20854,38.9819,-77.2263,"(38.9819, -77.2263)",1800_2016-06-29,06/29/2016 12:00:00 AM,PASS,routine,,,
26903,SMASHBURGER,200 ELLINGTON BLVD,GAITHERSBURG,MD,20878,39.1147,-77.2047,"(39.1147, -77.2047)",26903_2015-03-30,03/30/2015 12:00:00 AM,PASS,routine,,,
27660,STARBUCKS COFFEE #19878,307 COPLEY PLACE,GAITHERSBURG,MD,20878,39.1151,-77.2069,"(39.1151, -77.2069)",27660_2016-03-01,03/01/2016 12:00:00 AM,PASS,routine,,,
29303,TED'S MONTANA GRILL,105 ELLINGTON BLVD,GAITHERSBURG,MD,20878,39.1156,-77.2044,"(39.1156, -77.2044)",29303_2015-09-25,09/25/2015 12:00:00 AM,PASS,initial,,,
19042,"PEPINO'S KITCHEN, LLC",15721 COLUMBIA PIKE,BURTONSVILLE,MD,20866,39.1137,-76.9311,"(39.1137, -76.9311)",19042_2017-01-20,01/20/2017 12:00:00 AM,PASS,,,,
27874,ASIA NINE,254 CROWN PARK AVE,GAITHERSBURG,MD,20878,39.1141,-77.2045,"(39.1141, -77.2045)",27874_2015-09-09,09/09/2015 12:00:00 AM,PASS,routine,27874_2015-09-09_ColdHoldingTemperature(C),Standard not met: Cold Holding Temperature (C),true
28311,CHIPOTLE MEXICAN GRILL #2388,7101 DEMOCRACY BLVD,BETHESDA,MD,20814,39.0221,-77.1471,"(39.0221, -77.1471)",28311_2016-06-24,06/24/2016 12:00:00 AM,PASS,routine,,,
1607,MCDONALD'S #6502,12130 DARNESTOWN RD.,GAITHERSBURG,MD,20878,39.1173,-77.2518,"(39.1173, -77.2518)",1607_2015-09-04,09/04/2015 12:00:00 AM,PASS,complaint,,,
11286,BYRON HOUSE-DOM,9210 KENTSDALE DR.,POTOMAC,MD,20854,39.0088,-77.1711,"(39.0088, -77.1711)",11286_2015-10-22,10/22/2015 12:00:00 AM,PASS,routine,11286_2015-10-22_RodentandInsects,Standard not met: Rodent and Insects,false
11714,LA BAMBA,8241 GEORGIA AVE.,SILVER SPRING,MD,20910,38.9928,-77.026,"(38.9928, -77.026)",11714_2017-01-19,01/19/2017 12:00:00 AM,PASS,routine,11714_2017-01-19_ColdHoldingTemperature(C),Standard not met: Cold Holding Temperature (C),true
17241,BOWLMOR BETHESDA,5353 WESTBARD AVE.,BETHESDA,MD,20816,38.9632,-77.106,"(38.9632, -77.106)",17241_2015-10-02,10/02/2015 12:00:00 AM,PASS,routine,,,
26583,A C MOORE,12013 ROCKVILLE PK,ROCKVILLE,MD,20852,39.0551,-77.1136,"(39.0551, -77.1136)",26583_2016-01-15,01/15/2016 12:00:00 AM,PASS,routine,,,
134,ASBURY METHODIST VILLAGE-NH,417 RUSSELL AVE,GAITHERSBURG,MD,20877,39.1503,-77.2009,"(39.1503, -77.2009)",134_2017-01-19,01/19/2017 12:00:00 AM,PASS,routine,,,
1009,GENERAL NUTRITION CENTER #5547,251 KENTLANDS BLVD.,GAITHERSBURG,MD,20878,39.1246,-77.2393,"(39.1246, -77.2393)",1009_2016-11-21,11/21/2016 12:00:00 AM,PASS,routine,,,
28389,TED'S BULLETIN,220 ELLINGTON BLVD,GAITHERSBURG,MD,20878,39.1143,-77.2054,"(39.1143, -77.2054)",28389_2015-08-19,08/19/2015 12:00:00 AM,PASS,routine,28389_2015-08-19_CoolingTimeandTemperature(C),Standard not met: Cooling Time and Temperature (C),true
27857,CHOP'T CREATIVE SALAD CO,238 CROWN PARK AVE,GAITHERSBURG,MD,20878,39.1126,-77.2027,"(39.1126, -77.2027)",27857_2015-03-19,03/19/2015 12:00:00 AM,PASS,routine,27857_2015-03-19_HotHoldingTemperature(C),Standard not met: Hot Holding Temperature (C),true
27983,YOGIBERRY,230 CROWN PARK AVE,GAITHERSBURG,MD,20878,39.1144,-77.2048,"(39.1144, -77.2048)",27983_2015-04-10,04/10/2015 12:00:00 AM,PASS,routine,27983_2015-04-10_ColdHoldingTemperature(C),Standard not met: Cold Holding Temperature (C),true
22589,MAIN STREET BEER AND WINE,300 MAIN STREET,GAITHERSBURG,MD,20878,39.122,-77.2385,"(39.122, -77.2385)",22589_2016-07-03,07/03/2016 12:00:00 AM,PASS,routine,,,
27823,AFC SUSHI @ HARRIS TEETER #384,323 COPLEY PLACE,GAITHERSBURG,MD,20878,39.1149,-77.2077,"(39.1149, -77.2077)",27823_2015-05-05,05/05/2015 12:00:00 AM,PASS,routine,,,
17977,7-ELEVEN #22921,8101 FENTON ST,SILVER SPRING,MD,20910,38.9905,-77.0236,"(38.9905, -77.0236)",17977_2016-04-26,04/26/2016 12:00:00 AM,PASS,routine,17977_2016-04-26_HotHoldingTemperature(C),Standard not met: Hot Holding Temperature (C),true
18780,MARKET ON THE BOULEVARD,7945 MAC ARTHUR BLVD.,CABIN JOHN,MD,20818,38.9752,-77.1626,"(38.9752, -77.1626)",18780_2017-01-19,01/19/2017 12:00:00 AM,PASS,routine,,,
20675,BAJA FRESH MEXICAN GRILL #40,1607 ROCKVILLE PIKE,ROCKVILLE,MD,20852,39.0632,-77.1269,"(39.0632, -77.1269)",20675_2016-04-26,04/26/2016 12:00:00 AM,PASS,complaint,,,
2352,STARBUCKS COFFEE #00705,10100 RIVER RD.,POTOMAC,MD,20854,39.0167,-77.208,"(39.0167, -77.208)",2352_2017-01-18,01/18/2017 12:00:00 AM,PASS,initial,,,
183,BAGEL CITY,12119 ROCKVILLE PK.,ROCKVILLE,MD,20852,39.0574,-77.1184,"(39.0574, -77.1184)",183_2016-04-25,04/25/2016 12:00:00 AM,PASS,routine,,,
27660,STARBUCKS COFFEE #19878,307 COPLEY PLACE,GAITHERSBURG,MD,20878,39.1151,-77.2069,"(39.1151, -77.2069)",27660_2016-01-04,01/04/2016 12:00:00 AM,PASS,followup,,,
28311,CHIPOTLE MEXICAN GRILL #2388,7101 DEMOCRACY BLVD,BETHESDA,MD,20814,39.0221,-77.1471,"(39.0221, -77.1471)",28311_2016-02-19,02/19/2016 12:00:00 AM,PASS,routine,28311_2016-02-19_ProperHandWashing(C),Standard not met: Proper Hand Washing (C),true
11207,AGRODOLCE,21030-J FREDERICK RD.,GERMANTOWN,MD,20874,39.2013,-77.2471,"(39.2013, -77.2471)",11207_2016-09-16,09/16/2016 12:00:00 AM,PASS,routine,,,
2050,RAPHAEL HOUSE,1515 DUNSTER RD.,ROCKVILLE,MD,20854,39.0618,-77.1738,"(39.0618, -77.1738)",2050_2016-07-01,07/01/2016 12:00:00 AM,PASS,routine,,,
1035,GERMAN SCHOOL,8617 CHATEAU DR.,POTOMAC,MD,20854,39.011,-77.1778,"(39.011, -77.1778)",1035_2015-10-21,10/21/2015 12:00:00 AM,PASS,routine,,,
27838,HARRIS TEETER #384,323 COPLEY PLACE,GAITHERSBURG,MD,20878,39.1149,-77.2077,"(39.1149, -77.2077)",27838_2015-12-17,12/17/2015 12:00:00 AM,PASS,routine,27838_2015-12-17_RodentandInsects,Standard not met: Rodent and Insects,false
17689,CHEEBURGER CHEEBURGER,14921 SHADY GROVE RD.,ROCKVILLE,MD,20850,39.0967,-77.1932,"(39.0967, -77.1932)",17689_2016-11-21,11/21/2016 12:00:00 AM,PASS,followup,,,
23526,RUBY THAI KITCHEN,11160 VEIRS MILL RD.,WHEATON,MD,20902,39.037,-77.0539,"(39.037, -77.0539)",23526_2016-03-09,03/09/2016 12:00:00 AM,PASS,followup,23526_2016-03-09_RodentandInsects,Standard not met: Rodent and Insects,false
22522,SUBWAY #51725,12601 WISTERIA DR.,GERMANTOWN,MD,20874,39.1709,-77.2626,"(39.1709, -77.2626)",22522_2016-11-22,11/22/2016 12:00:00 AM,PASS,routine,,,
29179,NANDO'S PERI PERI,11160 VEIRS MILL RD,SILVER SPRING,MD,20902,39.037,-77.0539,"(39.037, -77.0539)",29179_2015-12-08,12/08/2015 12:00:00 AM,PASS,initial,,,
27736,COASTAL FLATS,135 CROWN PARK AVE,GAITHERSBURG,MD,20878,39.1144,-77.206,"(39.1144, -77.206)",27736_2015-04-21,04/21/2015 12:00:00 AM,PASS,routine,,,
28085,RUTH CHRIS STEAK HOUSE,106 CROWN PARK AVE,GAITHERSBURG,MD,20879,39.1151,-77.2063,"(39.1151, -77.2063)",28085_2016-01-07,01/07/2016 12:00:00 AM,PASS,routine,,,
27536,PANERA BREAD #3777,20680 SENECA MEADOWS PKWY,GERMANTOWN,MD,20876,39.2003,-77.255,"(39.2003, -77.255)",27536_2016-11-22,11/22/2016 12:00:00 AM,PASS,complaint,27536_2016-11-22_ColdHoldingTemperature(C),Standard not met: Cold Holding Temperature (C),true
27857,CHOP'T CREATIVE SALAD CO,238 CROWN PARK AVE,GAITHERSBURG,MD,20878,39.1126,-77.2027,"(39.1126, -77.2027)",27857_2016-04-11,04/11/2016 12:00:00 AM,PASS,routine,,,
413,CALIFORNIA PIZZA KITCHEN,7101 DEMOCRACY BLVD.,BETHESDA,MD,20817,39.0233,-77.1486,"(39.0233, -77.1486)",413_2016-11-22,11/22/2016 12:00:00 AM,PASS,complaint,,,
23946,BEN YEHUDA CAFE AND PIZZERIA,1370 LAMBERTON DR,SILVER SPRING,MD,20902,39.04,-77.031,"(39.04, -77.031)",23946_2016-03-31,03/31/2016 12:00:00 AM,PASS,routine,,,
19508,ROCKVILLE SERVICE CENTER,1900 ROCKVILLE PIKE,ROCKVILLE,MD,20852,39.0593,-77.1212,"(39.0593, -77.1212)",19508_2016-04-25,04/25/2016 12:00:00 AM,PASS,routine,,,
1694,MONTGOMERY KNOLLS ELEMENTARY,807 DALEVIEW DR.,SILVER SPRING,MD,20901,39.0065,-76.9941,"(39.0065, -76.9941)",1694_2016-04-25,04/25/2016 12:00:00 AM,PASS,routine,,,
27838,HARRIS TEETER #384,323 COPLEY PLACE,GAITHERSBURG,MD,20878,39.1149,-77.2077,"(39.1149, -77.2077)",27838_2015-12-17,12/17/2015 12:00:00 AM,PASS,routine,27838_2015-12-17_No-SmokingSignPosted,Standard not met: No-Smoking Sign Posted,false
29983,HALLIE WELLS MIDDLE SCHOOL,11701 LITTLE SENECA PKWY,CLARKSBURG,MD,20871,39.2324,-77.2393,"(39.2324, -77.2393)",29983_2016-08-15,08/15/2016 12:00:00 AM,PASS,initial,,,
350,BROADWAY PIZZA,7965 TUCKERMAN LN.,ROCKVILLE,MD,20854,39.0401,-77.1576,"(39.0401, -77.1576)",350_2017-01-18,01/18/2017 12:00:00 AM,PASS,routine,350_2017-01-18_ColdHoldingTemperature(C),Standard not met: Cold Holding Temperature (C),true
20540,PUPUSERIA EL COMALITO,1167-C UNIVERSITY BLVD,TAKOMA PARK,MD,20783,38.9887,-76.9894,"(38.9887, -76.9894)",20540_2015-03-04,03/04/2015 12:00:00 AM,PASS,routine,20540_2015-03-04_ColdHoldingTemperature(C),Standard not met: Cold Holding Temperature (C),true
11248,EXXON TIGER MART,13400 OLD COLUMBIA PK.,SILVER SPRING,MD,20904,39.0767,-76.9578,"(39.0767, -76.9578)",11248_2016-03-08,03/08/2016 12:00:00 AM,PASS,routine,,,
19016,RAINBOW FELLOWSHIP ADULT DAY CARE,18901 WARING STATION RD,GERMANTOWN,MD,20874,39.1671,-77.2449,"(39.1671, -77.2449)",19016_2016-08-04,08/04/2016 12:00:00 AM,PASS,complaint,19016_2016-08-04_ProperHandWashing(C),Standard not met: Proper Hand Washing (C),true
27983,YOGIBERRY,230 CROWN PARK AVE,GAITHERSBURG,MD,20878,39.1144,-77.2048,"(39.1144, -77.2048)",27983_2016-04-19,04/19/2016 12:00:00 AM,PASS,routine,,,
23526,RUBY THAI KITCHEN,11160 VEIRS MILL RD.,WHEATON,MD,20902,39.037,-77.0539,"(39.037, -77.0539)",23526_2016-02-26,02/26/2016 12:00:00 AM,PASS,routine,23526_2016-02-26_HotHoldingTemperature(C),Standard not met: Hot Holding Temperature (C),true
20232,AFC SUSHI @ HARRIS TEETER #328,11845 OLD GEORGETOWN RD,ROCKVILLE,MD,20852,39.0494,-77.1093,"(39.0494, -77.1093)",20232_2016-09-16,09/16/2016 12:00:00 AM,PASS,routine,,,
17740,BOB'S SHANGHAI 66,305 N. WASHINGTON ST.,ROCKVILLE,MD,20850,39.089,-77.153,"(39.089, -77.153)",17740_2015-08-01,08/01/2015 12:00:00 AM,PASS,routine,17740_2015-08-01_ColdHoldingTemperature(C),Standard not met: Cold Holding Temperature (C),true
857,EL GOLFO RESTAURANT,8739 FLOWER AVE.,SILVER SPRING,MD,20901,38.9994,-77.0036,"(38.9994, -77.0036)",857_2016-09-16,09/16/2016 12:00:00 AM,PASS,routine,,,
234,BELLS MILL ELEMENTARY,8225 BELLS MILL RD.,POTOMAC,MD,20854,39.0321,-77.1688,"(39.0321, -77.1688)",234_2015-05-11,05/11/2015 12:00:00 AM,PASS,routine,,,
2291,SNIDERS SUPERMARKET,1936 SEMINARY RD.,SILVER SPRING,MD,20910,39.0092,-77.0417,"(39.0092, -77.0417)",2291_2015-10-07,10/07/2015 12:00:00 AM,PASS,routine,,,
28572,ARIRANG KOREAN RESTAURANT,1314 EAST GUDE DR,ROCKVILLE,MD,20850,39.0972,-77.1349,"(39.0972, -77.1349)",28572_2016-02-11,02/11/2016 12:00:00 AM,PASS,routine,,,
29220,JASON'S SUB SHOP,916 EAST WEST HWY,TAKOMA PARK,MD,20912,38.9756,-76.9932,"(38.9756, -76.9932)",29220_2016-09-16,09/16/2016 12:00:00 AM,FAIL,routine,29220_2016-09-16_FoodProtectedfromContamination(C),Standard not met: Food Protected from Contamination (C),true
19148,GRILL KABOB,7101 DEMOCRACY BLVD.,BETHESDA,MD,20817,39.0233,-77.1486,"(39.0233, -77.1486)",19148_2016-11-22,11/22/2016 12:00:00 AM,PASS,complaint,,,
28455,ARBOL DEL PAN,8545 PINEY BRANCH RD,SILVER SPRING,MD,20901,38.998,-77.001,"(38.998, -77.001)",28455_2015-11-10,11/10/2015 12:00:00 AM,PASS,routine,,,
18031,7-ELEVEN #11590,10594 METROPOLITAN AVE.,KENSINGTON,MD,20895,39.0292,-77.0749,"(39.0292, -77.0749)",18031_2016-06-29,06/29/2016 12:00:00 AM,PASS,routine,,,
1918,PINEY BRANCH ELEMENTARY,7510 MAPLE AVE.,TAKOMA PARK,MD,20912,38.9822,-77.0095,"(38.9822, -77.0095)",1918_2015-10-21,10/21/2015 12:00:00 AM,PASS,routine,,,
19389,HARRIS TEETER #328,11845 OLD GEORGETOWN RD.,BETHESDA,MD,20852,39.0494,-77.1093,"(39.0494, -77.1093)",19389_2016-09-16,09/16/2016 12:00:00 AM,PASS,routine,19389_2016-09-16_ColdHoldingTemperature(C),Standard not met: Cold Holding Temperature (C),true
26765,BAJA FRESH,19810 CENTURY BLVD,GERMANTOWN,MD,20871,39.1805,-77.268,"(39.1805, -77.268)",26765_2017-01-19,01/19/2017 12:00:00 AM,PASS,routine,,,
2303,SPARE ROOM,11207 NEW HAMPSHIRE AVE.,SILVER SPRING,MD,20904,39.0407,-76.9898,"(39.0407, -76.9898)",2303_2016-03-09,03/09/2016 12:00:00 AM,PASS,routine,,,
423,CAMERON'S SEAFOOD MARKET,875 HUNGERFORD DR.,ROCKVILLE,MD,20850,39.0957,-77.1529,"(39.0957, -77.1529)",423_2017-01-17,01/17/2017 12:00:00 AM,PASS,routine,423_2017-01-17_ColdHoldingTemperature(C),Standard not met: Cold Holding Temperature (C),true
17963,BENIHANA,7935 WISCONSIN AVE.,BETHESDA,MD,20814,38.9904,-77.0951,"(38.9904, -77.0951)",17963_2017-01-20,01/20/2017 12:00:00 AM,PASS,routine,,,
27660,STARBUCKS COFFEE #19878,307 COPLEY PLACE,GAITHERSBURG,MD,20878,39.1151,-77.2069,"(39.1151, -77.2069)",27660_2015-03-04,03/04/2015 12:00:00 AM,PASS,routine,,,
23597,OLD TOWNE CAFE,226 E DIAMOND AVE,GAITHERSBURG,MD,20877,39.1423,-77.1935,"(39.1423, -77.1935)",23597_2016-02-17,02/17/2016 12:00:00 AM,PASS,routine,,,
24254,CORNED BEEF KING,18000 GEORGIA AVE,OLNEY,MD,20832,39.1511,-77.0673,"(39.1511, -77.0673)",24254_2015-08-03,08/03/2015 12:00:00 AM,PASS,routine,24254_2015-08-03_RodentandInsects,Standard not met: Rodent and Insects,false
17355,CHINA GARDEN HOUSE,178 ROLLINS AVE.,ROCKVILLE,MD,20852,39.0583,-77.1259,"(39.0583, -77.1259)",17355_2016-01-29,01/29/2016 12:00:00 AM,PASS,routine,,,
28513,RANDOLPH BEER AND WINE,5408 RANDOLPH RD,ROCKVILLE,MD,20852,39.0531,-77.1078,"(39.0531, -77.1078)",28513_2016-06-30,06/30/2016 12:00:00 AM,PASS,routine,,,
22620,JAVA WORKS,12410 MILESTONE DR.,GERMANTOWN,MD,20876,39.2004,-77.263,"(39.2004, -77.263)",22620_2016-06-30,06/30/2016 12:00:00 AM,PASS,followup,,,
19016,RAINBOW FELLOWSHIP ADULT DAY CARE,18901 WARING STATION RD,GERMANTOWN,MD,20874,39.1671,-77.2449,"(39.1671, -77.2449)",19016_2016-08-04,08/04/2016 12:00:00 AM,PASS,complaint,19016_2016-08-04_RodentandInsects,Standard not met: Rodent and Insects,false
23108,VIGNOLA'S CATERING,11612 BOILING BROOK PKWY,ROCKVILLE,MD,20852,39.047,-77.0996,"(39.047, -77.0996)",23108_2016-06-30,06/30/2016 12:00:00 AM,PASS,routine,,,
28028,&PIZZA,258 CROWN PARK AVE,GAITHERSBURG,MD,20878,39.114,-77.2044,"(39.114, -77.2044)",28028_2016-04-06,04/06/2016 12:00:00 AM,PASS,routine,,,
30025,SIRIWAN THAI RESTAURANT,12115 DARNESTOWN RD,GAITHERSBURG,MD,20878,39.1182,-77.2506,"(39.1182, -77.2506)",30025_2016-09-14,09/14/2016 12:00:00 AM,PASS,initial,,,
29303,TED'S MONTANA GRILL,105 ELLINGTON BLVD,GAITHERSBURG,MD,20878,39.1156,-77.2044,"(39.1156, -77.2044)",29303_2016-03-31,03/31/2016 12:00:00 AM,PASS,routine,,,
1121,GUAPO'S CANTINA,9811 WASHINGTONIAN BLVD.,GAITHERSBURG,MD,20878,39.1159,-77.198,"(39.1159, -77.198)",1121_2016-09-15,09/15/2016 12:00:00 AM,PASS,routine,1121_2016-09-15_ColdHoldingTemperature(C),Standard not met: Cold Holding Temperature (C),true
29179,NANDO'S PERI PERI,11160 VEIRS MILL RD,SILVER SPRING,MD,20902,39.037,-77.0539,"(39.037, -77.0539)",29179_2015-11-24,11/24/2015 12:00:00 AM,PASS,initial,,,
28552,COLDSTONE CREAMERY,7101 DEMOCRACY BLVD,BETHESDA,MD,20817,39.0221,-77.1471,"(39.0221, -77.1471)",28552_2017-01-17,01/17/2017 12:00:00 AM,PASS,routine,28552_2017-01-17_RodentandInsects,Standard not met: Rodent and Insects,false
2792,YUAN FU VEGETARIAN,798 ROCKVILLE PK.,ROCKVILLE,MD,20852,39.0785,-77.1403,"(39.0785, -77.1403)",2792_2016-04-26,04/26/2016 12:00:00 AM,PASS,complaint,,,
21406,ALDI #42,20904 FREDERICK RD.,GERMANTOWN,MD,20876,39.1986,-77.2473,"(39.1986, -77.2473)",21406_2016-04-27,04/27/2016 12:00:00 AM,PASS,routine,,,
29007,VONIKS JUICE,202 ELLINGTON BLVD,GAITHERSBURG,MD,20878,39.1146,-77.2048,"(39.1146, -77.2048)",29007_2015-11-23,11/23/2015 12:00:00 AM,PASS,initial,,,
28028,&PIZZA,258 CROWN PARK AVE,GAITHERSBURG,MD,20878,39.114,-77.2044,"(39.114, -77.2044)",28028_2015-09-14,09/14/2015 12:00:00 AM,PASS,routine,28028_2015-09-14_RodentandInsects,Standard not met: Rodent and Insects,false
28311,CHIPOTLE MEXICAN GRILL #2388,7101 DEMOCRACY BLVD,BETHESDA,MD,20814,39.0221,-77.1471,"(39.0221, -77.1471)",28311_2016-01-20,01/20/2016 12:00:00 AM,PASS,,,,
26903,SMASHBURGER,200 ELLINGTON BLVD,GAITHERSBURG,MD,20878,39.1147,-77.2047,"(39.1147, -77.2047)",26903_2016-03-15,03/15/2016 12:00:00 AM,PASS,routine,,,
20622,PANERA BREAD #3767,285 KENTLANDS BLVD.,GAITHERSBURG,MD,20878,39.1239,-77.2387,"(39.1239, -77.2387)",20622_2016-11-22,11/22/2016 12:00:00 AM,PASS,routine,,,
21361,MANDARIN RESTAURANT,8411 GEORGIA AVE.,SILVER SPRING,MD,20910,38.9937,-77.0264,"(38.9937, -77.0264)",21361_2016-04-26,04/26/2016 12:00:00 AM,PASS,followup,,,
27838,HARRIS TEETER #384,323 COPLEY PLACE,GAITHERSBURG,MD,20878,39.1149,-77.2077,"(39.1149, -77.2077)",27838_2015-03-18,03/18/2015 12:00:00 AM,PASS,routine,,,
28311,CHIPOTLE MEXICAN GRILL #2388,7101 DEMOCRACY BLVD,BETHESDA,MD,20814,39.0221,-77.1471,"(39.0221, -77.1471)",28311_2016-02-19,02/19/2016 12:00:00 AM,PASS,routine,28311_2016-02-19_RodentandInsects,Standard not met: Rodent and Insects,false
27823,AFC SUSHI @ HARRIS TEETER #384,323 COPLEY PLACE,GAITHERSBURG,MD,20878,39.1149,-77.2077,"(39.1149, -77.2077)",27823_2015-12-11,12/11/2015 12:00:00 AM,PASS,routine,,,
29575,W EXPRESS - WASHINGTONIAN,10003 FIELDS RD,GAITHERSBURG,MD,20878,39.1165,-77.2061,"(39.1165, -77.2061)",29575_2016-02-19,02/19/2016 12:00:00 AM,PASS,initial,,,
27736,COASTAL FLATS,135 CROWN PARK AVE,GAITHERSBURG,MD,20878,39.1144,-77.206,"(39.1144, -77.206)",27736_2016-04-06,04/06/2016 12:00:00 AM,PASS,routine,,,
29007,VONIKS JUICE,202 ELLINGTON BLVD,GAITHERSBURG,MD,20878,39.1146,-77.2048,"(39.1146, -77.2048)",29007_2016-04-19,04/19/2016 12:00:00 AM,PASS,routine,29007_2016-04-19_RodentandInsects,Standard not met: Rodent and Insects,false
27522,LA MADELEINE,242 CROWN PARK AVE,GAITHERSBURG,MD,20878,39.1143,-77.2046,"(39.1143, -77.2046)",27522_2016-04-12,04/12/2016 12:00:00 AM,PASS,routine,,,
26630,FIREHOUSE SUBS,19851 CENTURY BLVD,GERMANTOWN,MD,20874,39.1821,-77.2652,"(39.1821, -77.2652)",26630_2017-01-19,01/19/2017 12:00:00 AM,PASS,routine,,,
26903,SMASHBURGER,200 ELLINGTON BLVD,GAITHERSBURG,MD,20878,39.1147,-77.2047,"(39.1147, -77.2047)",26903_2015-09-10,09/10/2015 12:00:00 AM,PASS,routine,26903_2015-09-10_ColdHoldingTemperature(C),Standard not met: Cold Holding Temperature (C),true
28389,TED'S BULLETIN,220 ELLINGTON BLVD,GAITHERSBURG,MD,20878,39.1143,-77.2054,"(39.1143, -77.2054)",28389_2015-08-19,08/19/2015 12:00:00 AM,PASS,routine,28389_2015-08-19_ColdHoldingTemperature(C),Standard not met: Cold Holding Temperature (C),true
18977,ROSCOE R. NIX ELEM. SCHOOL,1100 CORLISS ST.,SILVER SPRING,MD,20903,39.018,-76.9883,"(39.018, -76.9883)",18977_2016-04-25,04/25/2016 12:00:00 AM,PASS,routine,,,
27660,STARBUCKS COFFEE #19878,307 COPLEY PLACE,GAITHERSBURG,MD,20878,39.1151,-77.2069,"(39.1151, -77.2069)",27660_2015-09-10,09/10/2015 12:00:00 AM,PASS,routine,,,
27983,YOGIBERRY,230 CROWN PARK AVE,GAITHERSBURG,MD,20878,39.1144,-77.2048,"(39.1144, -77.2048)",27983_2015-04-11,04/11/2015 12:00:00 AM,PASS,followup,,,
27736,COASTAL FLATS,135 CROWN PARK AVE,GAITHERSBURG,MD,20878,39.1144,-77.206,"(39.1144, -77.206)",27736_2015-10-16,10/16/2015 12:00:00 AM,PASS,routine,27736_2015-10-16_RodentandInsects,Standard not met: Rodent and Insects,false
19148,GRILL KABOB,7101 DEMOCRACY BLVD.,BETHESDA,MD,20817,39.0233,-77.1486,"(39.0233, -77.1486)",19148_2016-11-22,11/22/2016 12:00:00 AM,PASS,routine,19148_2016-11-22_ProperHandWashing(C),Standard not met: Proper Hand Washing (C),true
26771,MIELE BAKERY,9613-C MEDICAL CENTER DR,ROCKVILLE,MD,20850,39.1022,-77.1967,"(39.1022, -77.1967)",26771_2016-09-14,09/14/2016 12:00:00 AM,PASS,routine,26771_2016-09-14_ProperHandWashing(C),Standard not met: Proper Hand Washing (C),true
2532,TOURNAMENT PLAYERS CLUB AT AVENEL,10000 OAKLYN DR.,POTOMAC,MD,20854,38.9928,-77.1993,"(38.9928, -77.1993)",2532_2016-06-29,06/29/2016 12:00:00 AM,PASS,routine,,,
29899,COVENANT LIFE CHURCH,7501 MUNCASTER MILL RD,GAITHERSBURG,MD,20877,39.1534,-77.1503,"(39.1534, -77.1503)",29899_2016-08-24,08/24/2016 12:00:00 AM,PASS,initial,,,
29220,JASON'S SUB SHOP,916 EAST WEST HWY,TAKOMA PARK,MD,20912,38.9756,-76.9932,"(38.9756, -76.9932)",29220_2016-09-16,09/16/2016 12:00:00 AM,FAIL,routine,29220_2016-09-16_RodentandInsects,Standard not met: Rodent and Insects,false
1053,GIANT FOOD #0169,13060 MIDDLEBROOK RD.,GERMANTOWN,MD,20874,39.182,-77.2702,"(39.182, -77.2702)",1053_2016-11-22,11/22/2016 12:00:00 AM,PASS,routine,1053_2016-11-22_RodentandInsects,Standard not met: Rodent and Insects,false
273,BEVERLY FARMS ELEMENTARY,8501 POSTOAK RD.,POTOMAC,MD,20854,39.0521,-77.1763,"(39.0521, -77.1763)",273_2015-04-28,04/28/2015 12:00:00 AM,PASS,routine,,,
22251,MID COUNTY COMMUNITY REC CENTER,2004 QUEENSGUARD RD.,SILVER SPRING,MD,20906,39.0869,-77.0431,"(39.0869, -77.0431)",22251_2016-11-21,11/21/2016 12:00:00 AM,PASS,routine,,,
22551,J. CHOW'S CHICKEN RIBS SALADS,7101 DEMOCRACY BLVD.,BETHESDA,MD,20817,39.025,-77.1483,"(39.025, -77.1483)",22551_2016-06-30,06/30/2016 12:00:00 AM,PASS,routine,22551_2016-06-30_ProperHandWashing(C),Standard not met: Proper Hand Washing (C),true
20753,ROCKSPRING CAFE,6430 ROCKLEDGE DR.,BETHESDA,MD,20817,39.0252,-77.1334,"(39.0252, -77.1334)",20753_2016-06-30,06/30/2016 12:00:00 AM,PASS,routine,,,
234,BELLS MILL ELEMENTARY,8225 BELLS MILL RD.,POTOMAC,MD,20854,39.0321,-77.1688,"(39.0321, -77.1688)",234_2016-04-15,04/15/2016 12:00:00 AM,PASS,routine,,,
28110,CAVA MEZZE GRILL,7101 DEMOCRACY BLVD,BETHESDA,MD,20817,39.0221,-77.1471,"(39.0221, -77.1471)",28110_2016-06-30,06/30/2016 12:00:00 AM,PASS,complaint,28110_2016-06-30_ColdHoldingTemperature(C),Standard not met: Cold Holding Temperature (C),true
27787,BONO (GREEN TREE),6410 ROCKLEDGE DR,BETHESDA,MD,20817,39.024,-77.1337,"(39.024, -77.1337)",27787_2016-06-29,06/29/2016 12:00:00 AM,PASS,routine,,,
2972,ST. ANDREW'S EPISCOPAL SCHOOL,8804 POSTOAK RD.,POTOMAC,MD,20854,39.0467,-77.1764,"(39.0467, -77.1764)",2972_2015-10-16,10/16/2015 12:00:00 AM,PASS,routine,,,
20322,KENTLANDS BEER & WINE,414 MAIN ST,GAITHERSBURG,MD,20878,39.1212,-77.2365,"(39.1212, -77.2365)",20322_2016-07-03,07/03/2016 12:00:00 AM,PASS,routine,,,
19202,LA CHIQUITA CARRY OUT,940 EAST WEST HWY,TAKOMA PARK,MD,20912,38.9757,-76.9927,"(38.9757, -76.9927)",19202_2016-09-16,09/16/2016 12:00:00 AM,PASS,routine,19202_2016-09-16_ColdHoldingTemperature(C),Standard not met: Cold Holding Temperature (C),true
234,BELLS MILL ELEMENTARY,8225 BELLS MILL RD.,POTOMAC,MD,20854,39.0321,-77.1688,"(39.0321, -77.1688)",234_2015-10-09,10/09/2015 12:00:00 AM,PASS,routine,,,
19016,RAINBOW FELLOWSHIP ADULT DAY CARE,18901 WARING STATION RD,GERMANTOWN,MD,20874,39.1671,-77.2449,"(39.1671, -77.2449)",19016_2016-08-04,08/04/2016 12:00:00 AM,PASS,complaint,19016_2016-08-04_ColdHoldingTemperature(C),Standard not met: Cold Holding Temperature (C),true
2625,WEIS MARKET #129,26075 RIDGE RD.,DAMASCUS,MD,20872,39.2856,-77.2081,"(39.2856, -77.2081)",2625_2016-09-18,09/18/2016 12:00:00 AM,PASS,routine,2625_2016-09-18_ColdHoldingTemperature(C),Standard not met: Cold Holding Temperature (C),true
27522,LA MADELEINE,242 CROWN PARK AVE,GAITHERSBURG,MD,20878,39.1143,-77.2046,"(39.1143, -77.2046)",27522_2016-09-15,09/15/2016 12:00:00 AM,PASS,routine,27522_2016-09-15_ColdHoldingTemperature(C),Standard not met: Cold Holding Temperature (C),true
1415,LA MADELEINE FRENCH BAKERY & CAFE,7607 OLD GEORGETOWN RD.,BETHESDA,MD,20814,38.9859,-77.0957,"(38.9859, -77.0957)",1415_2016-09-12,09/12/2016 12:00:00 AM,PASS,complaint,1415_2016-09-12_ProperHandWashing(C),Standard not met: Proper Hand Washing (C),true
1121,GUAPO'S CANTINA,9811 WASHINGTONIAN BLVD.,GAITHERSBURG,MD,20878,39.1159,-77.198,"(39.1159, -77.198)",1121_2016-09-15,09/15/2016 12:00:00 AM,PASS,routine,1121_2016-09-15_RodentandInsects,Standard not met: Rodent and Insects,false
1121,GUAPO'S CANTINA,9811 WASHINGTONIAN BLVD.,GAITHERSBURG,MD,20878,39.1159,-77.198,"(39.1159, -77.198)",1121_2016-09-15,09/15/2016 12:00:00 AM,PASS,routine,1121_2016-09-15_HotHoldingTemperature(C),Standard not met: Hot Holding Temperature (C),true
1121,GUAPO'S CANTINA,9811 WASHINGTONIAN BLVD.,GAITHERSBURG,MD,20878,39.1159,-77.198,"(39.1159, -77.198)",1121_2016-09-15,09/15/2016 12:00:00 AM,PASS,routine,1121_2016-09-15_TransFatBan,Standard not met: Trans Fat Ban,false
29135,MCDONALD'S #21133,12135 VEIRS MILL RD,SILVER SPRING,MD,20910,39.0562,-77.0818,"(39.0562, -77.0818)",29135_2016-09-16,09/16/2016 12:00:00 AM,PASS,complaint,,,
2619,WATKINS MILL ELEMENTARY,19001 WATKINS MILL RD.,GAITHERSBURG,MD,20886,39.1669,-77.2107,"(39.1669, -77.2107)",2619_2016-09-16,09/16/2016 12:00:00 AM,PASS,routine,,,
18592,COPPER CANYON GRILL,928 ELLSWORTH DR.,SILVER SPRING,MD,20910,38.9954,-77.0268,"(38.9954, -77.0268)",18592_2016-04-27,04/27/2016 12:00:00 AM,PASS,routine,18592_2016-04-27_HotHoldingTemperature(C),Standard not met: Hot Holding Temperature (C),true
26771,MIELE BAKERY,9613-C MEDICAL CENTER DR,ROCKVILLE,MD,20850,39.1022,-77.1967,"(39.1022, -77.1967)",26771_2016-09-14,09/14/2016 12:00:00 AM,PASS,routine,26771_2016-09-14_TransFatBan,Standard not met: Trans Fat Ban,false
2425,SUSHI CHALET,323 MUDDY BRANCH RD.,GAITHERSBURG,MD,20878,39.1275,-77.2089,"(39.1275, -77.2089)",2425_2016-09-15,09/15/2016 12:00:00 AM,PASS,routine,2425_2016-09-15_ColdHoldingTemperature(C),Standard not met: Cold Holding Temperature (C),true
23549,WATKINS MILL H.S. - FAMILY & CONSUMER,10301 APPLE RIDGE RD.,GAITHERSBURG,MD,20886,39.1837,-77.216,"(39.1837, -77.216)",23549_2016-04-27,04/27/2016 12:00:00 AM,PASS,routine,,,
28003,SUBWAY #23159,19911-B N. FREDERICK RD,GERMANTOWN,MD,20876,0,0,"(0.0, 0.0)",28003_2017-01-22,01/22/2017 12:00:00 AM,PASS,routine,,,
2161,ROYAL BAGEL BAKERY,19725 GERMANTOWN RD.,GERMANTOWN,MD,20874,39.179,-77.2663,"(39.179, -77.2663)",2161_2016-04-27,04/27/2016 12:00:00 AM,PASS,complaint,2161_2016-04-27_FoodProtectedfromContamination(C),Standard not met: Food Protected from Contamination (C),true
30025,SIRIWAN THAI RESTAURANT,12115 DARNESTOWN RD,GAITHERSBURG,MD,20878,39.1182,-77.2506,"(39.1182, -77.2506)",30025_2016-09-13,09/13/2016 12:00:00 AM,PASS,initial,,,
17652,MCDONALD'S #15930,21121 FREDERICK RD.,GERMANTOWN,MD,20876,39.2041,-77.2445,"(39.2041, -77.2445)",17652_2016-04-27,04/27/2016 12:00:00 AM,PASS,routine,17652_2016-04-27_ColdHoldingTemperature(C),Standard not met: Cold Holding Temperature (C),true
2370,STEDWICK ELEMENTARY,10631 STEDWICK RD.,GAITHERSBURG,MD,20886,39.1742,-77.211,"(39.1742, -77.211)",2370_2016-09-16,09/16/2016 12:00:00 AM,PASS,routine,,,
21087,HILTON GARDEN INN ROCKVILLE,14975 SHADY GROVE RD.,ROCKVILLE,MD,20850,39.1001,-77.1913,"(39.1001, -77.1913)",21087_2017-01-19,01/19/2017 12:00:00 AM,PASS,routine,21087_2017-01-19_CoolingTimeandTemperature(C),Standard not met: Cooling Time and Temperature (C),true
19136,GRACE HOUSE-DOM,3214 NORBECK RD.,SILVER SPRING,MD,20906,39.1119,-77.0661,"(39.1119, -77.0661)",19136_2016-04-27,04/27/2016 12:00:00 AM,PASS,routine,,,
569,AMC THEATRES RIO CINEMA 18,9811 WASHINGTONIAN BLVD.,GAITHERSBURG,MD,20878,39.1157,-77.1977,"(39.1157, -77.1977)",569_2016-04-27,04/27/2016 12:00:00 AM,PASS,routine,,,
20702,SILVER SPRING MOOSE LODGE #658,4343 SANDY SPRING RD.,BURTONSVILLE,MD,20868,39.1066,-76.9214,"(39.1066, -76.9214)",20702_2016-04-27,04/27/2016 12:00:00 AM,PASS,routine,,,
18905,POLLO CAMPERO,701 RUSSELL AVE.,GAITHERSBURG,MD,20886,39.152,-77.2024,"(39.152, -77.2024)",18905_2016-04-27,04/27/2016 12:00:00 AM,PASS,,,,
28178,LA MADELEINE,11610 OLD GEORGETOWN RD,ROCKVILLE,MD,20852,39.0491,-77.1184,"(39.0491, -77.1184)",28178_2016-07-01,07/01/2016 12:00:00 AM,PASS,complaint,28178_2016-07-01_ColdHoldingTemperature(C),Standard not met: Cold Holding Temperature (C),true
21283,GIANT FOOD #2301,15618 OLD COLUMBIA PIKE,BURTONSVILLE,MD,20866,39.1131,-76.9354,"(39.1131, -76.9354)",21283_2016-04-26,04/26/2016 12:00:00 AM,PASS,routine,21283_2016-04-26_ColdHoldingTemperature(C),Standard not met: Cold Holding Temperature (C),true
29220,JASON'S SUB SHOP,916 EAST WEST HWY,TAKOMA PARK,MD,20912,38.9756,-76.9932,"(38.9756, -76.9932)",29220_2016-09-16,09/16/2016 12:00:00 AM,FAIL,routine,29220_2016-09-16_ProperSewageDisposal(C),Standard not met: Proper Sewage Disposal (C),true
28025,7-ELEVEN #36494,8484 GEORGIA AVE,SILVER SPRING,MD,20910,38.9941,-77.0271,"(38.9941, -77.0271)",28025_2015-08-10,08/10/2015 12:00:00 AM,PASS,complaint,28025_2015-08-10_CoolingTimeandTemperature(C),Standard not met: Cooling Time and Temperature (C),true
28960,KEFA CAFE,900 WAYNE AVE,SILVER SPRING,MD,20910,38.9951,-77.0245,"(38.9951, -77.0245)",28960_2017-01-19,01/19/2017 12:00:00 AM,PASS,routine,28960_2017-01-19_No-SmokingSignPosted,Standard not met: No-Smoking Sign Posted,false
22521,YURAKU JAPANESE RESTAURANT,19773 FREDERICK RD.,GERMANTOWN,MD,20876,39.1805,-77.2367,"(39.1805, -77.2367)",22521_2017-01-22,01/22/2017 12:00:00 AM,PASS,followup,,,
1848,OUTTA THE WAY CAFE,17503 REDLAND RD.,DERWOOD,MD,20855,39.144,-77.144,"(39.144, -77.144)",1848_2016-04-27,04/27/2016 12:00:00 AM,PASS,routine,1848_2016-04-27_ColdHoldingTemperature(C),Standard not met: Cold Holding Temperature (C),true
17969,POTBELLY #036,917 ELLSWORTH DR.,SILVER SPRING,MD,20910,38.9962,-77.0266,"(38.9962, -77.0266)",17969_2016-04-27,04/27/2016 12:00:00 AM,PASS,routine,17969_2016-04-27_HotHoldingTemperature(C),Standard not met: Hot Holding Temperature (C),true
29221,CARIBBEAN CLASSICS - SPECIAL EVENT CATERING,630 EAST DIAMOND AVE,GAITHERSBURG,MD,20877,39.1415,-77.1823,"(39.1415, -77.1823)",29221_2017-01-19,01/19/2017 12:00:00 AM,PASS,routine,,,
17574,ST. ANDREW KIM CATHOLIC CHURCH,17615 OLD BALTIMORE RD.,OLNEY,MD,20832,39.1452,-77.0504,"(39.1452, -77.0504)",17574_2017-01-18,01/18/2017 12:00:00 AM,PASS,routine,,,
20273,TAVERN,18200 GEORGIA AVE.,OLNEY,MD,20832,39.1548,-77.0674,"(39.1548, -77.0674)",20273_2016-04-27,04/27/2016 12:00:00 AM,PASS,routine,20273_2016-04-27_RodentandInsects,Standard not met: Rodent and Insects,false
17969,POTBELLY #036,917 ELLSWORTH DR.,SILVER SPRING,MD,20910,38.9962,-77.0266,"(38.9962, -77.0266)",17969_2016-04-27,04/27/2016 12:00:00 AM,PASS,routine,17969_2016-04-27_RodentandInsects,Standard not met: Rodent and Insects,false
2161,ROYAL BAGEL BAKERY,19725 GERMANTOWN RD.,GERMANTOWN,MD,20874,39.179,-77.2663,"(39.179, -77.2663)",2161_2016-04-27,04/27/2016 12:00:00 AM,PASS,complaint,2161_2016-04-27_RodentandInsects,Standard not met: Rodent and Insects,false
20471,BOURBON STREET CAFE,11160 VEIRS MILL RD.,WHEATON,MD,20902,39.037,-77.0539,"(39.037, -77.0539)",20471_2016-04-26,04/26/2016 12:00:00 AM,PASS,complaint,,,
1053,GIANT FOOD #0169,13060 MIDDLEBROOK RD.,GERMANTOWN,MD,20874,39.182,-77.2702,"(39.182, -77.2702)",1053_2016-11-22,11/22/2016 12:00:00 AM,PASS,routine,1053_2016-11-22_ColdHoldingTemperature(C),Standard not met: Cold Holding Temperature (C),true
306,BOB EVANS FARMS #316,21044 FREDERICK RD.,GERMANTOWN,MD,20876,39.2014,-77.246,"(39.2014, -77.246)",306_2017-01-22,01/22/2017 12:00:00 AM,PASS,routine,,,
20633,FRIENDS DELI,1010 WAYNE AVE,SILVER SPRING,MD,20910,38.9939,-77.0276,"(38.9939, -77.0276)",20633_2016-04-11,04/11/2016 12:00:00 AM,PASS,routine,20633_2016-04-11_TransFatBan,Standard not met: Trans Fat Ban,false
26668,DUNKIN DONUTS,19781 FREDERICK RD,GERMANTOWN,MD,20876,39.1795,-77.2379,"(39.1795, -77.2379)",26668_2016-11-22,11/22/2016 12:00:00 AM,PASS,routine,,,
1720,MUDDY BRANCH BEER & WINE,836 MUDDY BRANCH RD.,GAITHERSBURG,MD,20878,39.1142,-77.2178,"(39.1142, -77.2178)",1720_2016-07-03,07/03/2016 12:00:00 AM,PASS,routine,,,
20533,METRO CAFE,15850 CRABBS BRANCH WAY,ROCKVILLE,MD,20855,39.1141,-77.1576,"(39.1141, -77.1576)",20533_2016-02-10,02/10/2016 12:00:00 AM,PASS,routine,20533_2016-02-10_HotHoldingTemperature(C),Standard not met: Hot Holding Temperature (C),true
615,WOW COW,5241 RIVER RD.,BETHESDA,MD,20816,38.9659,-77.1043,"(38.9659, -77.1043)",615_2016-03-02,03/02/2016 12:00:00 AM,PASS,routine,,,
29272,TOFU VILLAGE,12945 WISTERIA DR,GERMANTOWN,MD,20874,39.1783,-77.2699,"(39.1783, -77.2699)",29272_2016-02-24,02/24/2016 12:00:00 AM,PASS,initial,,,
22374,BETTY ANN KRAHNKE CENTER,14810 BROSCHART RD.,ROCKVILLE,MD,20850,39.1001,-77.2038,"(39.1001, -77.2038)",22374_2016-04-27,04/27/2016 12:00:00 AM,PASS,routine,,,
28989,DON RAMON REST,13816 OLD COLUMBIA PIKE,SILVER SPRING,MD,20904,39.0836,-76.9524,"(39.0836, -76.9524)",28989_2016-04-27,04/27/2016 12:00:00 AM,PASS,routine,28989_2016-04-27_ColdHoldingTemperature(C),Standard not met: Cold Holding Temperature (C),true
28110,CAVA MEZZE GRILL,7101 DEMOCRACY BLVD,BETHESDA,MD,20817,39.0221,-77.1471,"(39.0221, -77.1471)",28110_2016-07-01,07/01/2016 12:00:00 AM,PASS,followup,,,
17960,SUBWAY,701 RUSSELL AVE.,GAITHERSBURG,MD,20877,39.1534,-77.204,"(39.1534, -77.204)",17960_2016-11-17,11/17/2016 12:00:00 AM,PASS,routine,,,
19016,RAINBOW FELLOWSHIP ADULT DAY CARE,18901 WARING STATION RD,GERMANTOWN,MD,20874,39.1671,-77.2449,"(39.1671, -77.2449)",19016_2015-12-07,12/07/2015 12:00:00 AM,PASS,routine,19016_2015-12-07_HotHoldingTemperature(C),Standard not met: Hot Holding Temperature (C),true
17241,BOWLMOR BETHESDA,5353 WESTBARD AVE.,BETHESDA,MD,20816,38.9632,-77.106,"(38.9632, -77.106)",17241_2017-01-20,01/20/2017 12:00:00 AM,PASS,routine,17241_2017-01-20_HotHoldingTemperature(C),Standard not met: Hot Holding Temperature (C),true
1445,LAYTONSVILLE GOLF COURSE SNACK BAR,7130 DORSEY RD.,LAYTONSVILLE,MD,20882,39.1971,-77.1439,"(39.1971, -77.1439)",1445_2015-10-09,10/09/2015 12:00:00 AM,PASS,routine,,,
27495,EL TACO LOCO,2515 UNIVERSITY BLVD W,SILVER SPRING,MD,20902,39.0415,-77.0526,"(39.0415, -77.0526)",27495_2016-11-22,11/22/2016 12:00:00 AM,PASS,routine,,,
27397,SARKU JAPAN,7101 DEMOCRACY BLVD,BETHESDA,MD,20817,39.025,-77.1483,"(39.025, -77.1483)",27397_2016-03-22,03/22/2016 12:00:00 AM,PASS,complaint,27397_2016-03-22_HotHoldingTemperature(C),Standard not met: Hot Holding Temperature (C),true
29913,LEDO PIZZA RESTAURANT,3850 INTERNATIONAL DR,SILVER SPRING,MD,20906,39.1023,-77.0751,"(39.1023, -77.0751)",29913_2017-01-12,01/12/2017 12:00:00 AM,PASS,initial,,,
1607,MCDONALD'S #6502,12130 DARNESTOWN RD.,GAITHERSBURG,MD,20878,39.1173,-77.2518,"(39.1173, -77.2518)",1607_2015-06-17,06/17/2015 12:00:00 AM,PASS,routine,1607_2015-06-17_FoodProtectedfromContamination(C),Standard not met: Food Protected from Contamination (C),true
28025,7-ELEVEN #36494,8484 GEORGIA AVE,SILVER SPRING,MD,20910,38.9941,-77.0271,"(38.9941, -77.0271)",28025_2016-04-11,04/11/2016 12:00:00 AM,PASS,routine,28025_2016-04-11_CookingTimeandTemperature(C),Standard not met: Cooking Time and Temperature (C),true
23526,RUBY THAI KITCHEN,11160 VEIRS MILL RD.,WHEATON,MD,20902,39.037,-77.0539,"(39.037, -77.0539)",23526_2016-04-14,04/14/2016 12:00:00 AM,PASS,complaint,23526_2016-04-14_HotHoldingTemperature(C),Standard not met: Hot Holding Temperature (C),true
30172,MONTROSE DELI,6001 MONTROSE RD,ROCKVILLE,MD,20852,39.0533,-77.1208,"(39.0533, -77.1208)",30172_2016-11-22,11/22/2016 12:00:00 AM,PASS,routine,30172_2016-11-22_TransFatBan,Standard not met: Trans Fat Ban,false
19481,PANERA BREAD #3761,12285 TECH ROAD,SILVER SPRING,MD,20904,39.0574,-76.9669,"(39.0574, -76.9669)",19481_2015-12-04,12/04/2015 12:00:00 AM,PASS,routine,19481_2015-12-04_ColdHoldingTemperature(C),Standard not met: Cold Holding Temperature (C),true
22200,LITTLE CAESARS,2567 ENNALLS AVE.,SILVER SPRING,MD,20902,39.0398,-77.0543,"(39.0398, -77.0543)",22200_2016-11-22,11/22/2016 12:00:00 AM,PASS,routine,22200_2016-11-22_RodentandInsects,Standard not met: Rodent and Insects,false
926,FIELDS ROAD ELEMENTARY,1 SCHOOL DR.,GAITHERSBURG,MD,20878,39.1189,-77.215,"(39.1189, -77.215)",926_2016-11-21,11/21/2016 12:00:00 AM,PASS,routine,926_2016-11-21_RodentandInsects,Standard not met: Rodent and Insects,false
27491,HERBERT HOOVER MIDDLE SCHOOL,8810 POSTOAK RD,POTOMAC,MD,20854,39.0439,-77.178,"(39.0439, -77.178)",27491_2016-04-27,04/27/2016 12:00:00 AM,PASS,routine,,,
22750,SUGO MACARONI BAR - PARK POTOMAC,12505 PARK POTOMAC AVE. STE. 110,POTOMAC,MD,20854,39.0603,-77.1568,"(39.0603, -77.1568)",22750_2017-01-19,01/19/2017 12:00:00 AM,PASS,routine,22750_2017-01-19_ColdHoldingTemperature(C),Standard not met: Cold Holding Temperature (C),true
20305,BREAD CORNER,591 HUNGERFORD DR,ROCKVILLE,MD,20850,39.0918,-77.1523,"(39.0918, -77.1523)",20305_2017-01-20,01/20/2017 12:00:00 AM,PASS,followup,,,
18623,7-ELEVEN #32389,7980 GEORGIA AVE,SILVER SPRING,MD,20910,38.9861,-77.0272,"(38.9861, -77.0272)",18623_2016-02-17,02/17/2016 12:00:00 AM,PASS,routine,18623_2016-02-17_HotHoldingTemperature(C),Standard not met: Hot Holding Temperature (C),true
18905,POLLO CAMPERO,701 RUSSELL AVE.,GAITHERSBURG,MD,20886,39.152,-77.2024,"(39.152, -77.2024)",18905_2016-04-27,04/27/2016 12:00:00 AM,PASS,routine,18905_2016-04-27_RodentandInsects,Standard not met: Rodent and Insects,false
11598,SHOPPERS FOOD WAREHOUSE,5110 NICHOLSON LN.,KENSINGTON,MD,20895,39.0445,-77.1047,"(39.0445, -77.1047)",11598_2016-01-06,01/06/2016 12:00:00 AM,PASS,routine,,,
29224,CHIPOTLE MEXICAN GRILL #2668,10161 NEW HAMPSHIRE AVE,SILVER SPRING,MD,20903,39.0219,-76.9765,"(39.0219, -76.9765)",29224_2016-03-14,03/14/2016 12:00:00 AM,PASS,initial,,,
24142,IRON AGE,1054 ROCKVILLE PK,ROCKVILLE,MD,20852,39.0726,-77.1329,"(39.0726, -77.1329)",24142_2016-11-22,11/22/2016 12:00:00 AM,PASS,routine,24142_2016-11-22_ColdHoldingTemperature(C),Standard not met: Cold Holding Temperature (C),true
28733,NATRA TEAROOM SHOP,720 ERIE AVE,TAKOMA PARK,MD,20912,38.9888,-77.0018,"(38.9888, -77.0018)",28733_2016-07-05,07/05/2016 12:00:00 AM,PASS,routine,,,
20441,"GREEK PLACE, THE",8417 GEORGIA AVE,SILVER SPRING,MD,20910,38.9938,-77.0264,"(38.9938, -77.0264)",20441_2017-01-19,01/19/2017 12:00:00 AM,PASS,routine,20441_2017-01-19_FoodProtectedfromContamination(C),Standard not met: Food Protected from Contamination (C),true
27626,CHICK-FIL-A,12001 ROCKVILLE PIKE,ROCKVILLE,MD,20852,39.0538,-77.1164,"(39.0538, -77.1164)",27626_2016-01-15,01/15/2016 12:00:00 AM,PASS,routine,,,
29383,CHIPOTLE MEXICAN GRILL #2781,20940-A NORTH FREDERICK AVE,GERMANTOWN,MD,20876,39.2034,-77.2484,"(39.2034, -77.2484)",29383_2016-10-13,10/13/2016 12:00:00 AM,PASS,routine,29383_2016-10-13_HotHoldingTemperature(C),Standard not met: Hot Holding Temperature (C),true
18383,CVS/PHARMACY #5460,19901 FREDERICK RD.,GERMANTOWN,MD,20876,39.182,-77.2379,"(39.182, -77.2379)",18383_2016-04-27,04/27/2016 12:00:00 AM,PASS,routine,18383_2016-04-27_RodentandInsects,Standard not met: Rodent and Insects,false
18549,PANSA LLENA,11279-A NEW HAMPSHIRE AVE.,SILVER SPRING,MD,20910,39.0421,-76.9877,"(39.0421, -76.9877)",18549_2015-12-03,12/03/2015 12:00:00 AM,PASS,routine,18549_2015-12-03_ColdHoldingTemperature(C),Standard not met: Cold Holding Temperature (C),true
21283,GIANT FOOD #2301,15618 OLD COLUMBIA PIKE,BURTONSVILLE,MD,20866,39.1131,-76.9354,"(39.1131, -76.9354)",21283_2016-04-26,04/26/2016 12:00:00 AM,PASS,routine,21283_2016-04-26_HotHoldingTemperature(C),Standard not met: Hot Holding Temperature (C),true
29168,MAKI BAR,6831 WISCONSIN AVE,CHEVY CHASE,MD,20815,38.9783,-77.0906,"(38.9783, -77.0906)",29168_2015-10-29,10/29/2015 12:00:00 AM,PASS,initial,,,
28311,CHIPOTLE MEXICAN GRILL #2388,7101 DEMOCRACY BLVD,BETHESDA,MD,20814,39.0221,-77.1471,"(39.0221, -77.1471)",28311_2015-05-26,05/26/2015 12:00:00 AM,PASS,routine,28311_2015-05-26_ColdHoldingTemperature(C),Standard not met: Cold Holding Temperature (C),true
19148,GRILL KABOB,7101 DEMOCRACY BLVD.,BETHESDA,MD,20817,39.0233,-77.1486,"(39.0233, -77.1486)",19148_2016-11-22,11/22/2016 12:00:00 AM,PASS,routine,19148_2016-11-22_ColdHoldingTemperature(C),Standard not met: Cold Holding Temperature (C),true
26668,DUNKIN DONUTS,19781 FREDERICK RD,GERMANTOWN,MD,20876,39.1795,-77.2379,"(39.1795, -77.2379)",26668_2015-03-14,03/14/2015 12:00:00 AM,PASS,routine,26668_2015-03-14_TransFatBan,Standard not met: Trans Fat Ban,false
28625,CHINA GOURMET BISTRO,7945 TUCKERMAN LANE,POTOMAC,MD,20854,39.0397,-77.157,"(39.0397, -77.157)",28625_2017-01-19,01/19/2017 12:00:00 AM,PASS,followup,,,
26789,UNION JACKS,9811 WASHINGTONIAN BLVD,GAITHERSBURG,MD,20878,39.1158,-77.1976,"(39.1158, -77.1976)",26789_2016-11-21,11/21/2016 12:00:00 AM,PASS,complaint,,,
28625,CHINA GOURMET BISTRO,7945 TUCKERMAN LANE,POTOMAC,MD,20854,39.0397,-77.157,"(39.0397, -77.157)",28625_2017-01-19,01/19/2017 12:00:00 AM,PASS,followup,,,
28647,SAL'S ITALIAN KITCHEN,7949 MAC ARTHUR BLVD,CABIN JOHN,MD,20818,38.9747,-77.1627,"(38.9747, -77.1627)",28647_2017-01-19,01/19/2017 12:00:00 AM,PASS,routine,28647_2017-01-19_HotHoldingTemperature(C),Standard not met: Hot Holding Temperature (C),true
26571,"EL GAUCHO MEATS & FISH, INC",4301 RANDOLPH RD,SILVER SPRING,MD,20906,39.056,-77.0836,"(39.056, -77.0836)",26571_2016-03-09,03/09/2016 12:00:00 AM,PASS,routine,,,
26785,WHEATON EXXON,11310 GEORGIA AVE,SILVER SPRING,MD,20902,39.0411,-77.0519,"(39.0411, -77.0519)",26785_2015-06-03,06/03/2015 12:00:00 AM,PASS,routine,,,
661,CRISP & JUICY,3800 INTERNATIONAL DR.,SILVER SPRING,MD,20906,39.1035,-77.0752,"(39.1035, -77.0752)",661_2017-01-12,01/12/2017 12:00:00 AM,PASS,routine,661_2017-01-12_ColdHoldingTemperature(C),Standard not met: Cold Holding Temperature (C),true
28572,ARIRANG KOREAN RESTAURANT,1314 EAST GUDE DR,ROCKVILLE,MD,20850,39.0972,-77.1349,"(39.0972, -77.1349)",28572_2015-05-12,05/12/2015 12:00:00 AM,PASS,initial,,,
18846,MCGINTY'S IRISH PUBLIC HOUSE,911 ELLSWORTH DR.,SILVER SPRING,MD,20910,38.9964,-77.0261,"(38.9964, -77.0261)",18846_2016-04-27,04/27/2016 12:00:00 AM,PASS,routine,18846_2016-04-27_RodentandInsects,Standard not met: Rodent and Insects,false
20129,ST. RAPHAEL SCHOOL,1513 DUNSTER ROAD,ROCKVILLE,MD,20854,39.0618,-77.1747,"(39.0618, -77.1747)",20129_2016-04-27,04/27/2016 12:00:00 AM,PASS,routine,,,
2620,WATKINS MILL HIGH,10301 APPLE RIDGE RD.,GAITHERSBURG,MD,20879,39.1837,-77.216,"(39.1837, -77.216)",2620_2016-04-27,04/27/2016 12:00:00 AM,PASS,routine,,,
23918,HUNAN MANOR,11237 NEW HAMPSHIRE AVE,SILVER SPRING,MD,20904,39.0413,-76.9882,"(39.0413, -76.9882)",23918_2016-04-25,04/25/2016 12:00:00 AM,PASS,followup,,,
5693,POPEYES,11311 LOCKWOOD DR,SILVER SPRING,MD,20904,39.0399,-76.989,"(39.0399, -76.989)",5693_2016-04-25,04/25/2016 12:00:00 AM,PASS,routine,,,
28348,BLENDED,314 COPLEY PLACE,GAITHERSBURG,MD,20878,39.1145,-77.2064,"(39.1145, -77.2064)",28348_2016-04-27,04/27/2016 12:00:00 AM,PASS,routine,,,
596,COLD SPRING ELEMENTARY,9201 FALLS CHAPEL WAY,POTOMAC,MD,20854,39.0591,-77.1887,"(39.0591, -77.1887)",596_2016-04-27,04/27/2016 12:00:00 AM,PASS,routine,,,
18592,COPPER CANYON GRILL,928 ELLSWORTH DR.,SILVER SPRING,MD,20910,38.9954,-77.0268,"(38.9954, -77.0268)",18592_2016-04-27,04/27/2016 12:00:00 AM,PASS,routine,18592_2016-04-27_ColdHoldingTemperature(C),Standard not met: Cold Holding Temperature (C),true
28025,7-ELEVEN #36494,8484 GEORGIA AVE,SILVER SPRING,MD,20910,38.9941,-77.0271,"(38.9941, -77.0271)",28025_2015-08-10,08/10/2015 12:00:00 AM,PASS,complaint,28025_2015-08-10_ColdHoldingTemperature(C),Standard not met: Cold Holding Temperature (C),true
1765,NORBECK COUNTRY CLUB,17200 CASHELL RD.,ROCKVILLE,MD,20853,39.1372,-77.0955,"(39.1372, -77.0955)",1765_2016-06-30,06/30/2016 12:00:00 AM,PASS,routine,,,
28025,7-ELEVEN #36494,8484 GEORGIA AVE,SILVER SPRING,MD,20910,38.9941,-77.0271,"(38.9941, -77.0271)",28025_2016-04-11,04/11/2016 12:00:00 AM,PASS,routine,28025_2016-04-11_HotHoldingTemperature(C),Standard not met: Hot Holding Temperature (C),true
26789,UNION JACKS,9811 WASHINGTONIAN BLVD,GAITHERSBURG,MD,20878,39.1158,-77.1976,"(39.1158, -77.1976)",26789_2016-11-21,11/21/2016 12:00:00 AM,PASS,routine,26789_2016-11-21_ReheatingTimeandTemperature(C),Standard not met: Reheating Time and Temperature (C),true
20633,FRIENDS DELI,1010 WAYNE AVE,SILVER SPRING,MD,20910,38.9939,-77.0276,"(38.9939, -77.0276)",20633_2015-08-27,08/27/2015 12:00:00 AM,PASS,complaint,,,
19148,GRILL KABOB,7101 DEMOCRACY BLVD.,BETHESDA,MD,20817,39.0233,-77.1486,"(39.0233, -77.1486)",19148_2016-11-22,11/22/2016 12:00:00 AM,PASS,routine,19148_2016-11-22_RodentandInsects,Standard not met: Rodent and Insects,false
11443,BROOKE GROVE REHAB & NURSING,18131 SLADE SCHOOL RD.,SANDY SPRING,MD,20860,39.1546,-77.0398,"(39.1546, -77.0398)",11443_2016-06-30,06/30/2016 12:00:00 AM,PASS,routine,,,
1841,"ORIGINAL PANCAKE HOUSE, THE",12224 ROCKVILLE PK.,ROCKVILLE,MD,20852,39.0557,-77.1194,"(39.0557, -77.1194)",1841_2017-01-20,01/20/2017 12:00:00 AM,PASS,routine,,,
29168,MAKI BAR,6831 WISCONSIN AVE,CHEVY CHASE,MD,20815,38.9783,-77.0906,"(38.9783, -77.0906)",29168_2016-03-28,03/28/2016 12:00:00 AM,PASS,routine,,,
20633,FRIENDS DELI,1010 WAYNE AVE,SILVER SPRING,MD,20910,38.9939,-77.0276,"(38.9939, -77.0276)",20633_2016-04-11,04/11/2016 12:00:00 AM,PASS,routine,20633_2016-04-11_FoodProtectedfromContamination(C),Standard not met: Food Protected from Contamination (C),true
17253,ROY ROGERS,12907 WISTERIA DR.,GERMANTOWN,MD,20874,39.1776,-77.2708,"(39.1776, -77.2708)",17253_2017-01-18,01/18/2017 12:00:00 AM,PASS,complaint,17253_2017-01-18_RodentandInsects,Standard not met: Rodent and Insects,false
20067,MAKI MAKI,8023 WISCONSIN AVE,BETHESDA,MD,20814,38.9911,-77.0954,"(38.9911, -77.0954)",20067_2017-01-19,01/19/2017 12:00:00 AM,PASS,routine,20067_2017-01-19_ColdHoldingTemperature(C),Standard not met: Cold Holding Temperature (C),true
379,BURGER KING #5882,3870 INTERNATIONAL DR.,SILVER SPRING,MD,20906,39.1025,-77.0762,"(39.1025, -77.0762)",379_2017-01-12,01/12/2017 12:00:00 AM,PASS,followup,,,
2647,WESTLAKE WINE & BEER,10442 AUTO PARK AVE.,BETHESDA,MD,20817,39.0287,-77.1454,"(39.0287, -77.1454)",2647_2017-01-19,01/19/2017 12:00:00 AM,PASS,routine,,,
28798,SAFEWAY #1716,4701 SANGAMORE RD,BETHESDA,MD,20816,38.9486,-77.1201,"(38.9486, -77.1201)",28798_2017-01-20,01/20/2017 12:00:00 AM,PASS,routine,28798_2017-01-20_ColdHoldingTemperature(C),Standard not met: Cold Holding Temperature (C),true
20441,"GREEK PLACE, THE",8417 GEORGIA AVE,SILVER SPRING,MD,20910,38.9938,-77.0264,"(38.9938, -77.0264)",20441_2017-01-19,01/19/2017 12:00:00 AM,PASS,routine,20441_2017-01-19_ProperHandWashing(C),Standard not met: Proper Hand Washing (C),true
28960,KEFA CAFE,900 WAYNE AVE,SILVER SPRING,MD,20910,38.9951,-77.0245,"(38.9951, -77.0245)",28960_2017-01-19,01/19/2017 12:00:00 AM,PASS,routine,28960_2017-01-19_TransFatBan,Standard not met: Trans Fat Ban,false
18443,BARONESSA ITALIAN RESTAURANT,1302 E. GUDE DR.,ROCKVILLE,MD,20850,39.0975,-77.1355,"(39.0975, -77.1355)",18443_2016-12-02,12/02/2016 12:00:00 AM,PASS,routine,,,
20483,AIRPARK BEER & WINE,7601- G AIRPARK RD.,GAITHERSBURG,MD,20879,39.1702,-77.1546,"(39.1702, -77.1546)",20483_2017-01-19,01/19/2017 12:00:00 AM,PASS,routine,20483_2017-01-19_No-SmokingSignPosted,Standard not met: No-Smoking Sign Posted,false
29092,RITE AID #06761,8701 GEORGIA AVE,SILVER SPRING,MD,20910,38.9979,-77.0297,"(38.9979, -77.0297)",29092_2016-03-10,03/10/2016 12:00:00 AM,PASS,initial,,,
28078,BANGLA BAZAAR,11468 CHERRY HILL RD,BELTSVILLE,MD,20705,39.0447,-76.953,"(39.0447, -76.953)",28078_2016-09-20,09/20/2016 12:00:00 AM,PASS,routine,28078_2016-09-20_RodentandInsects,Standard not met: Rodent and Insects,false
23863,ACE SUSHI @ GIANT #132,10400 OLD GEORGETOWN ROAD,BETHESDA,MD,20814,39.0252,-77.1273,"(39.0252, -77.1273)",23863_2016-07-06,07/06/2016 12:00:00 AM,PASS,routine,,,
29423,MEDIFAST WEIGHT CONTROL CENTER,152 CONGRESSIONAL LANE,ROCKVILLE,MD,20852,39.0628,-77.1276,"(39.0628, -77.1276)",29423_2015-12-15,12/15/2015 12:00:00 AM,PASS,initial,,,
1125,GUI-LIN,10054 DARNESTOWN RD.,ROCKVILLE,MD,20850,39.0957,-77.2072,"(39.0957, -77.2072)",1125_2016-04-28,04/28/2016 12:00:00 AM,PASS,routine,1125_2016-04-28_TransFatBan,Standard not met: Trans Fat Ban,false
27644,SENECA MEADOWS BEER AND WINE,20640 SENECA MEADOWS PKWY,GERMANTOWN,MD,20876,39.199,-77.2548,"(39.199, -77.2548)",27644_2016-04-28,04/28/2016 12:00:00 AM,PASS,,,,
23943,ADDIS ABABA RESTAURANT,8233 FENTON STREET,SILVER SPRING,MD,20910,38.9926,-77.0239,"(38.9926, -77.0239)",23943_2016-04-28,04/28/2016 12:00:00 AM,PASS,complaint,23943_2016-04-28_HotHoldingTemperature(C),Standard not met: Hot Holding Temperature (C),true
27996,DC DIAPER BANK,8858 MONARD DR,SILVER SPRING,MD,20910,39.0012,-77.0589,"(39.0012, -77.0589)",27996_2017-01-19,01/19/2017 12:00:00 AM,PASS,routine,,,
17354,WASHINGTON-MCLAUGHLIN ADULT DAY CARE CR,6501 POPLAR AVE,TAKOMA PARK,MD,20912,38.9724,-77,"(38.9724, -77.0)",17354_2016-09-19,09/19/2016 12:00:00 AM,PASS,routine,,,
29466,CAFE X-PRESS,8714 A GEORGIA AVE,SILVER SPRING,MD,20910,38.9977,-77.0304,"(38.9977, -77.0304)",29466_2016-04-26,04/26/2016 12:00:00 AM,PASS,routine,,,
1048,GIANT FOOD #0132,10400 OLD GEORGETOWN RD.,BETHESDA,MD,20814,39.0259,-77.127,"(39.0259, -77.127)",1048_2016-07-06,07/06/2016 12:00:00 AM,PASS,complaint,,,
26710,HIGHLANDS AT GERMANTOWN BANQUET,20260 GOLDENROD LANE,GERMANTOWN,MD,20876,39.1869,-77.2522,"(39.1869, -77.2522)",26710_2016-07-06,07/06/2016 12:00:00 AM,PASS,routine,,,
18152,OGEI'S CHICKEN AND SUBS & GRILL,293 MUDDY BRANCH RD.,GAITHERSBURG,MD,20878,39.1269,-77.2082,"(39.1269, -77.2082)",18152_2016-04-28,04/28/2016 12:00:00 AM,PASS,routine,,,
20381,HWA GAE JANG TUH,2104 VEIRS MILL RD,ROCKVILLE,MD,20851,39.0756,-77.1151,"(39.0756, -77.1151)",20381_2016-09-16,09/16/2016 12:00:00 AM,PASS,routine,20381_2016-09-16_RodentandInsects,Standard not met: Rodent and Insects,false
11595,BEERS & CHEERS,19827 CENTURY BLVD.,GERMANTOWN,MD,20874,39.1811,-77.2662,"(39.1811, -77.2662)",11595_2016-07-05,07/05/2016 12:00:00 AM,PASS,routine,,,
17698,MONTGOMERY CO. CORRECTIONAL FACILITY,22880 WHELAN LANE,BOYDS,MD,20841,39.231,-77.2868,"(39.231, -77.2868)",17698_2016-04-27,04/27/2016 12:00:00 AM,PASS,routine,,,
18623,7-ELEVEN #32389,7980 GEORGIA AVE,SILVER SPRING,MD,20910,38.9861,-77.0272,"(38.9861, -77.0272)",18623_2016-07-05,07/05/2016 12:00:00 AM,PASS,complaint,,,
17761,SOL AZTECA RESTAURANT,18129 TOWN CENTER DR.,OLNEY,MD,20832,39.1526,-77.0613,"(39.1526, -77.0613)",17761_2016-04-28,04/28/2016 12:00:00 AM,PASS,routine,17761_2016-04-28_ProperHandWashing(C),Standard not met: Proper Hand Washing (C),true
20512,KENSINGTON SHELL,10515 CONNECTICUT AVE,KENSINGTON,MD,20895,39.0278,-77.0761,"(39.0278, -77.0761)",20512_2016-04-27,04/27/2016 12:00:00 AM,PASS,routine,,,
29694,EATHAI RESTAURANT,4011 NORBECK RD UNIT E,ROCKVILLE,MD,20853,39.1101,-77.0778,"(39.1101, -77.0778)",29694_2016-09-14,09/14/2016 12:00:00 AM,PASS,routine,29694_2016-09-14_ColdHoldingTemperature(C),Standard not met: Cold Holding Temperature (C),true
22581,CREM CAFFE,199 J. EAST MONTGOMERY AVE.,ROCKVILLE,MD,20850,39.084,-77.1497,"(39.084, -77.1497)",22581_2017-01-20,01/20/2017 12:00:00 AM,PASS,routine,,,
27503,GALLERY CAFE,9711 WASHINGTONIAN BLVD,GAITHERSBURG,MD,20878,39.1118,-77.1916,"(39.1118, -77.1916)",27503_2016-04-28,04/28/2016 12:00:00 AM,PASS,routine,,,
26925,PANERA BREAD #3779,7201 WISCONSIN AVE,BETHESDA,MD,20814,38.9818,-77.0925,"(38.9818, -77.0925)",26925_2016-04-27,04/27/2016 12:00:00 AM,PASS,routine,,,
21087,HILTON GARDEN INN ROCKVILLE,14975 SHADY GROVE RD.,ROCKVILLE,MD,20850,39.1001,-77.1913,"(39.1001, -77.1913)",21087_2017-01-19,01/19/2017 12:00:00 AM,PASS,routine,21087_2017-01-19_ColdHoldingTemperature(C),Standard not met: Cold Holding Temperature (C),true
20137,BELBY DISCOUNT BEER & WINE,888 ROCKVILLE PIKE,ROCKVILLE,MD,20852,39.075,-77.1356,"(39.075, -77.1356)",20137_2016-06-30,06/30/2016 12:00:00 AM,PASS,routine,,,
11634,BROOKEVILLE FARMS COUNTRY INN,19501 GEORGIA AVE.,BROOKEVILLE,MD,20833,39.1759,-77.0573,"(39.1759, -77.0573)",11634_2016-04-28,04/28/2016 12:00:00 AM,PASS,routine,,,
21247,7501 CAFE C/O SODEXO,7501 WISCONSIN AVE STE 100E,BETHESDA,MD,20814,38.9851,-77.093,"(38.9851, -77.093)",21247_2016-04-27,04/27/2016 12:00:00 AM,PASS,routine,,,
19328,HILTON GARDEN INN - BETHESDA,7301 WAVERLY ST.,BETHESDA,MD,20814,38.9836,-77.0917,"(38.9836, -77.0917)",19328_2016-04-26,04/26/2016 12:00:00 AM,PASS,followup,,,
1125,GUI-LIN,10054 DARNESTOWN RD.,ROCKVILLE,MD,20850,39.0957,-77.2072,"(39.0957, -77.2072)",1125_2016-04-28,04/28/2016 12:00:00 AM,PASS,routine,1125_2016-04-28_ColdHoldingTemperature(C),Standard not met: Cold Holding Temperature (C),true
18377,DAMASCUS COMMUNITY RECREATION CENTER,25520 OAK DR.,DAMASCUS,MD,20872,39.2678,-77.2221,"(39.2678, -77.2221)",18377_2016-09-20,09/20/2016 12:00:00 AM,PASS,routine,,,
21086,EMPIRE CAFE & MARKET,22301  GEORGIA AVE.,BROOKEVILLE,MD,20833,39.2216,-77.0592,"(39.2216, -77.0592)",21086_2016-07-06,07/06/2016 12:00:00 AM,PASS,routine,,,
18662,AFRICANA INTERNATIONAL MARKET,9132 ROTHBURY DR.,GAITHERSBURG,MD,20886,39.1846,-77.1891,"(39.1846, -77.1891)",18662_2016-07-06,07/06/2016 12:00:00 AM,PASS,followup,,,
29220,JASON'S SUB SHOP,916 EAST WEST HWY,TAKOMA PARK,MD,20912,38.9756,-76.9932,"(38.9756, -76.9932)",29220_2016-09-19,09/19/2016 12:00:00 AM,PASS,followup,,,
22627,CHOICE BEER AND WINE,802 ROCKVILLE PIKE,ROCKVILLE,MD,20852,39.0784,-77.1402,"(39.0784, -77.1402)",22627_2016-06-30,06/30/2016 12:00:00 AM,PASS,routine,,,
29092,RITE AID #06761,8701 GEORGIA AVE,SILVER SPRING,MD,20910,38.9979,-77.0297,"(38.9979, -77.0297)",29092_2016-03-09,03/09/2016 12:00:00 AM,PASS,initial,,,
2349,STARBUCKS COFFEE #07231,8542-B CONNECTICUT AVE.,CHEVY CHASE,MD,20815,38.9955,-77.0776,"(38.9955, -77.0776)",2349_2017-01-20,01/20/2017 12:00:00 AM,PASS,routine,,,
1647,MIDDLE EAST MARKET,7006 CARROLL AVE.,TAKOMA PARK,MD,20912,38.975,-77.012,"(38.975, -77.012)",1647_2016-09-19,09/19/2016 12:00:00 AM,PASS,routine,1647_2016-09-19_CoolingTimeandTemperature(C),Standard not met: Cooling Time and Temperature (C),true
28580,FRANCISCAS'S DOMINICAN CAKES,11464 CHERRY HILL RD,SILVER SPRING,MD,20904,39.0446,-76.9529,"(39.0446, -76.9529)",28580_2016-09-20,09/20/2016 12:00:00 AM,PASS,routine,,,
29783,RINCON PERUANO,210 EAST DIAMOND AVE,GAITHERSBURG,MD,20877,39.1423,-77.1941,"(39.1423, -77.1941)",29783_2017-01-20,01/20/2017 12:00:00 AM,PASS,followup,29783_2017-01-20_ColdHoldingTemperature(C),Standard not met: Cold Holding Temperature (C),true
20579,BAJA FRESH,2800 W. UNIVERSITY BLVD.   S116,SILVER SPRING,MD,20902,39.0383,-77.0569,"(39.0383, -77.0569)",20579_2016-09-20,09/20/2016 12:00:00 AM,PASS,routine,,,
514,CHICKEN BASKET,5058-B NICHOLSON LN.,ROCKVILLE,MD,20852,39.0457,-77.1039,"(39.0457, -77.1039)",514_2017-01-20,01/20/2017 12:00:00 AM,PASS,routine,514_2017-01-20_ProperHandWashing(C),Standard not met: Proper Hand Washing (C),true
28001,ACE SUSHI @ SAFEWAY #2797,3333 SPARTAN RD,OLNEY,MD,20832,39.1504,-77.0646,"(39.1504, -77.0646)",28001_2016-09-15,09/15/2016 12:00:00 AM,PASS,routine,,,
20441,"GREEK PLACE, THE",8417 GEORGIA AVE,SILVER SPRING,MD,20910,38.9938,-77.0264,"(38.9938, -77.0264)",20441_2017-01-19,01/19/2017 12:00:00 AM,PASS,routine,20441_2017-01-19_RodentandInsects,Standard not met: Rodent and Insects,false
28314,MOOEY'S FROZEN YOGURT,19710 FISHER AVE,POOLESVILLE,MD,20837,39.1423,-77.4075,"(39.1423, -77.4075)",28314_2016-09-20,09/20/2016 12:00:00 AM,PASS,routine,,,
27519,INDOCHINE EXPRESS,15416 NEW HAMPSHIRE AVE,SILVER SPRING,MD,20905,39.1097,-76.9977,"(39.1097, -76.9977)",27519_2017-01-18,01/18/2017 12:00:00 AM,PASS,routine,27519_2017-01-18_HotHoldingTemperature(C),Standard not met: Hot Holding Temperature (C),true
706,DAIRY QUEEN,2019 VEIRS MILL RD.,ROCKVILLE,MD,20851,39.0747,-77.1159,"(39.0747, -77.1159)",706_2016-09-19,09/19/2016 12:00:00 AM,PASS,routine,,,
8434,SAKURA JAPANESE STEAK & SEAFOOD HOUSE,11502 MIDDLEBROOK RD.,GERMANTOWN,MD,20876,39.1801,-77.2392,"(39.1801, -77.2392)",8434_2017-01-22,01/22/2017 12:00:00 AM,PASS,followup,,,
18818,GREEK ISLANDS GRILL,15410 NEW HAMPSHIRE AVE.,SILVER SPRING,MD,20905,39.1095,-76.9978,"(39.1095, -76.9978)",18818_2017-01-18,01/18/2017 12:00:00 AM,PASS,routine,18818_2017-01-18_HotHoldingTemperature(C),Standard not met: Hot Holding Temperature (C),true
17766,CASPIAN KABOB,19911-C FREDERICK RD.,GERMANTOWN,MD,20876,39.1826,-77.2381,"(39.1826, -77.2381)",17766_2016-09-20,09/20/2016 12:00:00 AM,PASS,complaint,17766_2016-09-20_ColdHoldingTemperature(C),Standard not met: Cold Holding Temperature (C),true
21123,CHIPOTLE MEXICAN GRILL #1449,3333 OLNEY SANDY SPRING RD #101,OLNEY,MD,20832,39.1533,-77.0661,"(39.1533, -77.0661)",21123_2016-09-15,09/15/2016 12:00:00 AM,PASS,routine,,,
2036,QUINCE ORCHARD H S CONCESSION,15800 QUINCE ORCHARD RD.,GAITHERSBURG,MD,20878,39.116,-77.254,"(39.116, -77.254)",2036_2016-09-16,09/16/2016 12:00:00 AM,PASS,routine,2036_2016-09-16_FoodfromApprovedSource(C),Standard not met: Food from Approved Source (C),true
26890,AZTECA GRILL & BAR,11514 MIDDLEBROOK RD,GERMANTOWN,MD,20876,39.1794,-77.2388,"(39.1794, -77.2388)",26890_2016-09-20,09/20/2016 12:00:00 AM,PASS,routine,,,
18631,"COZY DELI, THE",7101 WISCONSIN AVE. STE 106,BETHESDA,MD,20814,38.9804,-77.092,"(38.9804, -77.092)",18631_2016-09-20,09/20/2016 12:00:00 AM,PASS,routine,,,
20285,REDWOOD RESTAURANT,7121 BETHESDA LN,BETHESDA,MD,20814,38.9813,-77.0979,"(38.9813, -77.0979)",20285_2016-09-19,09/19/2016 12:00:00 AM,PASS,routine,20285_2016-09-19_HotHoldingTemperature(C),Standard not met: Hot Holding Temperature (C),true
18467,COPPER CANYON GRILL,100 BOARDWALK PL.,GAITHERSBURG,MD,20878,39.1174,-77.199,"(39.1174, -77.199)",18467_2016-09-19,09/19/2016 12:00:00 AM,PASS,complaint,18467_2016-09-19_CoolingTimeandTemperature(C),Standard not met: Cooling Time and Temperature (C),true
1511,SELECTOS  LATINOS,11790 PARKLAWN DR.,ROCKVILLE,MD,20852,39.0483,-77.1025,"(39.0483, -77.1025)",1511_2016-09-16,09/16/2016 12:00:00 AM,PASS,followup,,,
18467,COPPER CANYON GRILL,100 BOARDWALK PL.,GAITHERSBURG,MD,20878,39.1174,-77.199,"(39.1174, -77.199)",18467_2016-09-19,09/19/2016 12:00:00 AM,PASS,complaint,18467_2016-09-19_ColdHoldingTemperature(C),Standard not met: Cold Holding Temperature (C),true
26700,LE PAIN QUOTIDIEN,5310 WESTERN AVE,CHEVY CHASE,MD,20815,38.9603,-77.0867,"(38.9603, -77.0867)",26700_2016-09-19,09/19/2016 12:00:00 AM,PASS,routine,26700_2016-09-19_ColdHoldingTemperature(C),Standard not met: Cold Holding Temperature (C),true
19042,"PEPINO'S KITCHEN, LLC",15721 COLUMBIA PIKE,BURTONSVILLE,MD,20866,39.1137,-76.9311,"(39.1137, -76.9311)",19042_2017-01-19,01/19/2017 12:00:00 AM,PASS,routine,,,
18168,CHIPOTLE MEXICAN GRILL #0411,"907 ELLSWORTH DR.,",SILVER SPRING,MD,20910,38.9965,-77.026,"(38.9965, -77.026)",18168_2016-02-29,02/29/2016 12:00:00 AM,PASS,routine,18168_2016-02-29_ColdHoldingTemperature(C),Standard not met: Cold Holding Temperature (C),true
18959,GREEN ACRES SCHOOL,11701 DANVILLE DR.,ROCKVILLE,MD,20852,39.0491,-77.1301,"(39.0491, -77.1301)",18959_2016-09-20,09/20/2016 12:00:00 AM,PASS,routine,,,
936,FLOWER DELI,8707 FLOWER AVE.,SILVER SPRING,MD,20901,38.9987,-77.0032,"(38.9987, -77.0032)",936_2015-03-31,03/31/2015 12:00:00 AM,PASS,routine,,,
18969,MOGOTILLO RESTAURANT,7637 NEW HAMPSHIRE AVE,TAKOMA PARK,MD,20912,38.9869,-76.9874,"(38.9869, -76.9874)",18969_2016-02-24,02/24/2016 12:00:00 AM,PASS,followup,18969_2016-02-24_ColdHoldingTemperature(C),Standard not met: Cold Holding Temperature (C),true
28864,ST. JANE DE CHANTAL SCHOOL,9525 OLD GEORGETOWN RD,BETHESDA,MD,20814,39.0126,-77.116,"(39.0126, -77.116)",28864_2015-04-27,04/27/2015 12:00:00 AM,PASS,initial,,,
29866,PIZZA & DELI THREE AMIGOS,410 LINCOLN ST,ROCKVILLE,MD,20850,39.0927,-77.143,"(39.0927, -77.143)",29866_2016-12-02,12/02/2016 12:00:00 AM,PASS,routine,29866_2016-12-02_ColdHoldingTemperature(C),Standard not met: Cold Holding Temperature (C),true
28002,BRIGGS CHANEY DELI,13832 OUTLET DR,SILVER SPRING,MD,20904,39.0833,-76.9454,"(39.0833, -76.9454)",28002_2015-10-21,10/21/2015 12:00:00 AM,PASS,routine,,,
29612,WASHINGTON ADVENTIST UNIVERSITY BOOKSTORE,7600 FLOWER AVE,TAKOMA PARK,MD,20912,38.9863,-77.0012,"(38.9863, -77.0012)",29612_2016-09-20,09/20/2016 12:00:00 AM,PASS,routine,,,
30018,LITTLE DIPPER HOT POT,101 GIBBS ST,ROCKVILLE,MD,20850,39.0854,-77.152,"(39.0854, -77.152)",30018_2017-01-17,01/17/2017 12:00:00 AM,PASS,initial,,,
379,BURGER KING #5882,3870 INTERNATIONAL DR.,SILVER SPRING,MD,20906,39.1025,-77.0762,"(39.1025, -77.0762)",379_2017-01-11,01/11/2017 12:00:00 AM,PASS,routine,379_2017-01-11_RodentandInsects,Standard not met: Rodent and Insects,false
22336,RIVER ROAD SHELL,5110 RIVER ROAD,BETHESDA,MD,20816,38.9635,-77.102,"(38.9635, -77.102)",22336_2015-11-25,11/25/2015 12:00:00 AM,PASS,routine,,,
20144,LIFE CAFE,1151 SEVEN LOCKS RD,ROCKVILLE,MD,20854,39.0628,-77.1583,"(39.0628, -77.1583)",20144_2017-01-18,01/18/2017 12:00:00 AM,PASS,routine,20144_2017-01-18_RodentandInsects,Standard not met: Rodent and Insects,false
28086,LA PASION PANADERIA Y RESTAURANTE,8484 PINEY BRANCH RD,SILVER SPRING,MD,20901,0,0,"(0.0, 0.0)",28086_2016-05-12,05/12/2016 12:00:00 AM,PASS,routine,28086_2016-05-12_ColdHoldingTemperature(C),Standard not met: Cold Holding Temperature (C),true
20285,REDWOOD RESTAURANT,7121 BETHESDA LN,BETHESDA,MD,20814,38.9813,-77.0979,"(38.9813, -77.0979)",20285_2016-09-19,09/19/2016 12:00:00 AM,PASS,routine,20285_2016-09-19_No-SmokingSignPosted,Standard not met: No-Smoking Sign Posted,false
19148,GRILL KABOB,7101 DEMOCRACY BLVD.,BETHESDA,MD,20817,39.0233,-77.1486,"(39.0233, -77.1486)",19148_2016-03-03,03/03/2016 12:00:00 AM,PASS,routine,,,
2810,MCDONALD'S #19793,8507 COLESVILLE RD.,SILVER SPRING,MD,20910,38.9952,-77.0302,"(38.9952, -77.0302)",2810_2015-10-06,10/06/2015 12:00:00 AM,PASS,complaint,2810_2015-10-06_FoodfromApprovedSource(C),Standard not met: Food from Approved Source (C),true
22339,SUBWAY #49102,728 CLOVERLY ST,SILVER SPRING,MD,20905,39.1096,-76.9956,"(39.1096, -76.9956)",22339_2017-01-18,01/18/2017 12:00:00 AM,PASS,routine,,,
23595,BASKIN ROBBINS #2408,8639 16TH ST,SILVER SPRING,MD,20910,38.9986,-77.0384,"(38.9986, -77.0384)",23595_2016-09-20,09/20/2016 12:00:00 AM,PASS,routine,,,
29913,LEDO PIZZA RESTAURANT,3850 INTERNATIONAL DR,SILVER SPRING,MD,20906,39.1023,-77.0751,"(39.1023, -77.0751)",29913_2017-01-17,01/17/2017 12:00:00 AM,PASS,initial,,,
28798,SAFEWAY #1716,4701 SANGAMORE RD,BETHESDA,MD,20816,38.9486,-77.1201,"(38.9486, -77.1201)",28798_2017-01-20,01/20/2017 12:00:00 AM,PASS,routine,28798_2017-01-20_HotHoldingTemperature(C),Standard not met: Hot Holding Temperature (C),true
21087,HILTON GARDEN INN ROCKVILLE,14975 SHADY GROVE RD.,ROCKVILLE,MD,20850,39.1001,-77.1913,"(39.1001, -77.1913)",21087_2017-01-19,01/19/2017 12:00:00 AM,PASS,routine,21087_2017-01-19_HotHoldingTemperature(C),Standard not met: Hot Holding Temperature (C),true
17718,NORTHWOOD HIGH SCHOOL,"919 UNIVERSITY BLVD.,W",SILVER SPRING,MD,20901,39.0354,-77.0224,"(39.0354, -77.0224)",17718_2015-11-06,11/06/2015 12:00:00 AM,PASS,routine,,,
17718,NORTHWOOD HIGH SCHOOL,"919 UNIVERSITY BLVD.,W",SILVER SPRING,MD,20901,39.0354,-77.0224,"(39.0354, -77.0224)",17718_2015-04-14,04/14/2015 12:00:00 AM,PASS,routine,,,
11346,POPEYES,3410 OLNEY-LAYTONSVILLE RD,OLNEY,MD,20832,39.1528,-77.0675,"(39.1528, -77.0675)",11346_2015-04-20,04/20/2015 12:00:00 AM,PASS,routine,,,
18419,CUBA DE AYER,15446-48 OLD COLUMBIA PIKE,BURTONSVILLE,MD,20866,39.1095,-76.9358,"(39.1095, -76.9358)",18419_2015-08-05,08/05/2015 12:00:00 AM,PASS,routine,,,
28086,LA PASION PANADERIA Y RESTAURANTE,8484 PINEY BRANCH RD,SILVER SPRING,MD,20901,0,0,"(0.0, 0.0)",28086_2016-01-08,01/08/2016 12:00:00 AM,PASS,routine,28086_2016-01-08_TransFatBan,Standard not met: Trans Fat Ban,false
27519,INDOCHINE EXPRESS,15416 NEW HAMPSHIRE AVE,SILVER SPRING,MD,20905,39.1097,-76.9977,"(39.1097, -76.9977)",27519_2017-01-18,01/18/2017 12:00:00 AM,PASS,routine,27519_2017-01-18_ColdHoldingTemperature(C),Standard not met: Cold Holding Temperature (C),true
22636,PHO NOM NOM,842-A ROCKVILLE PIKE,ROCKVILLE,MD,20852,39.0758,-77.1369,"(39.0758, -77.1369)",22636_2016-02-05,02/05/2016 12:00:00 AM,PASS,routine,,,
29600,PI PIZZERIA,7137 WISCONSIN AVE,BETHESDA,MD,20814,38.9807,-77.0922,"(38.9807, -77.0922)",29600_2017-01-19,01/19/2017 12:00:00 AM,PASS,routine,29600_2017-01-19_ColdHoldingTemperature(C),Standard not met: Cold Holding Temperature (C),true
11560,MCDONALD'S - UNIVERSITY BLVD,"106 UNIVERSITY BLVD.,W.",SILVER SPRING,MD,20901,39.0206,-77.0139,"(39.0206, -77.0139)",11560_2016-02-02,02/02/2016 12:00:00 AM,PASS,routine,,,
588,CLOVERLY ELEMENTARY,800 BRIGGS CHANEY RD.,SILVER SPRING,MD,20905,39.1082,-76.9937,"(39.1082, -76.9937)",588_2015-09-24,09/24/2015 12:00:00 AM,PASS,routine,,,
19490,LE PAIN QUOTIDIEN,7140 BETHESDA LANE,BETHESDA,MD,20814,38.9828,-77.0983,"(38.9828, -77.0983)",19490_2016-02-18,02/18/2016 12:00:00 AM,PASS,routine,19490_2016-02-18_ColdHoldingTemperature(C),Standard not met: Cold Holding Temperature (C),true
2469,TALBERT'S ICE & BEVERAGE,5234 RIVER RD.,BETHESDA,MD,20816,38.965,-77.1047,"(38.965, -77.1047)",2469_2015-11-10,11/10/2015 12:00:00 AM,PASS,routine,,,
17718,NORTHWOOD HIGH SCHOOL,"919 UNIVERSITY BLVD.,W",SILVER SPRING,MD,20901,39.0354,-77.0224,"(39.0354, -77.0224)",17718_2016-05-10,05/10/2016 12:00:00 AM,PASS,routine,17718_2016-05-10_ColdHoldingTemperature(C),Standard not met: Cold Holding Temperature (C),true
137,ASHTON METHODIST CHURCH KITCHEN,17314 NEW HAMPSHIRE AVE.,ASHTON,MD,20861,39.1413,-76.9982,"(39.1413, -76.9982)",137_2016-01-14,01/14/2016 12:00:00 AM,PASS,routine,,,
19490,LE PAIN QUOTIDIEN,7140 BETHESDA LANE,BETHESDA,MD,20814,38.9828,-77.0983,"(38.9828, -77.0983)",19490_2015-09-21,09/21/2015 12:00:00 AM,PASS,routine,19490_2015-09-21_ColdHoldingTemperature(C),Standard not met: Cold Holding Temperature (C),true
17244,CHINA PAVILION,4611-A SANGAMORE RD.,BETHESDA,MD,20816,38.95,-77.1194,"(38.95, -77.1194)",17244_2017-01-20,01/20/2017 12:00:00 AM,PASS,routine,17244_2017-01-20_ColdHoldingTemperature(C),Standard not met: Cold Holding Temperature (C),true
21274,ISLAND PRIDE 3,823 HUNGERFORD DR.,ROCKVILLE,MD,20850,39.0951,-77.1528,"(39.0951, -77.1528)",21274_2015-06-18,06/18/2015 12:00:00 AM,PASS,routine,21274_2015-06-18_FoodProtectedfromContamination(C),Standard not met: Food Protected from Contamination (C),true
20067,MAKI MAKI,8023 WISCONSIN AVE,BETHESDA,MD,20814,38.9911,-77.0954,"(38.9911, -77.0954)",20067_2017-01-19,01/19/2017 12:00:00 AM,PASS,routine,20067_2017-01-19_FoodfromApprovedSource(C),Standard not met: Food from Approved Source (C),true
29,7-ELEVEN #20096,14430 LAYHILL RD.,SILVER SPRING,MD,20906,39.0928,-77.0459,"(39.0928, -77.0459)",29_2015-08-26,08/26/2015 12:00:00 AM,PASS,routine,29_2015-08-26_RodentandInsects,Standard not met: Rodent and Insects,false
22253,CASA PAELLA @ TAPELLAS,14672 SOUTHLAWN LN.   E,ROCKVILLE,MD,20850,39.0971,-77.1397,"(39.0971, -77.1397)",22253_2015-05-13,05/13/2015 12:00:00 AM,PASS,,,,
1597,MCDONALD'S #4539,18010 GEORGIA AVE.,OLNEY,MD,20832,39.1516,-77.0673,"(39.1516, -77.0673)",1597_2016-07-07,07/07/2016 12:00:00 AM,PASS,routine,1597_2016-07-07_ColdHoldingTemperature(C),Standard not met: Cold Holding Temperature (C),true
28406,PANDA EXPRESS,11160 VEIRS MILL RD,SILVER SPRING,MD,20902,39.037,-77.0539,"(39.037, -77.0539)",28406_2015-09-08,09/08/2015 12:00:00 AM,PASS,routine,,,
19255,ROOTS MARKET,16800 GEORGIA AVE,OLNEY,MD,20832,39.1318,-77.0716,"(39.1318, -77.0716)",19255_2015-04-06,04/06/2015 12:00:00 AM,PASS,routine,19255_2015-04-06_HotHoldingTemperature(C),Standard not met: Hot Holding Temperature (C),true
28985,BRAZILIAN BAKERY,13655 GEORGIA AVE,SILVER SPRING,MD,20906,39.0802,-77.0723,"(39.0802, -77.0723)",28985_2016-09-14,09/14/2016 12:00:00 AM,PASS,routine,28985_2016-09-14_RodentandInsects,Standard not met: Rodent and Insects,false
20808,WELLBEING CAFE,101 MONROE ST,ROCKVILLE,MD,20850,39.083,-77.1494,"(39.083, -77.1494)",20808_2016-06-29,06/29/2016 12:00:00 AM,PASS,routine,20808_2016-06-29_TransFatBan,Standard not met: Trans Fat Ban,false
20663,DAILY DISH,8301 A GRUBB RD.,SILVER SPRING,MD,20910,38.9924,-77.0487,"(38.9924, -77.0487)",20663_2016-09-20,09/20/2016 12:00:00 AM,PASS,routine,,,
29585,7-ELEVEN,11421 ROCKVILLE PK,KENSINGTON,MD,20895,,,,29585_2016-07-07,07/07/2016 12:00:00 AM,PASS,initial,,,
2768,LEDO PIZZA - DARNESTOWN RD,10058 DARNESTOWN RD.,ROCKVILLE,MD,20850,39.0966,-77.2046,"(39.0966, -77.2046)",2768_2015-12-02,12/02/2015 12:00:00 AM,PASS,routine,2768_2015-12-02_ColdHoldingTemperature(C),Standard not met: Cold Holding Temperature (C),true
19217,LA TASCA SPANISH TAPAS BAR & RESTAURANT,141 GIBBS ST.,ROCKVILLE,MD,20850,39.0865,-77.1518,"(39.0865, -77.1518)",19217_2015-10-22,10/22/2015 12:00:00 AM,PASS,routine,,,
28797,SAFEWAY #1715,403 REDLAND BLVD,ROCKVILLE,MD,20850,39.1132,-77.1716,"(39.1132, -77.1716)",28797_2016-02-06,02/06/2016 12:00:00 AM,PASS,routine,28797_2016-02-06_TransFatBan,Standard not met: Trans Fat Ban,false
29344,ANDY'S BEER AND WINE,15523 NEW HAMPSHIRE AVE,SILVER SPRING,MD,20905,39.1105,-76.9952,"(39.1105, -76.9952)",29344_2016-09-14,09/14/2016 12:00:00 AM,PASS,routine,,,
11560,MCDONALD'S - UNIVERSITY BLVD,"106 UNIVERSITY BLVD.,W.",SILVER SPRING,MD,20901,39.0206,-77.0139,"(39.0206, -77.0139)",11560_2015-07-09,07/09/2015 12:00:00 AM,PASS,routine,11560_2015-07-09_ColdHoldingTemperature(C),Standard not met: Cold Holding Temperature (C),true
960,FRANCIS SCOTT KEY MIDDLE,910 SCHINDLER DR.,SILVER SPRING,MD,20903,39.0279,-76.9925,"(39.0279, -76.9925)",960_2016-04-29,04/29/2016 12:00:00 AM,PASS,routine,,,
942,FOOD LION #1345,16567 S. FREDERICK RD.,GAITHERSBURG,MD,20877,39.1278,-77.1835,"(39.1278, -77.1835)",942_2016-09-20,09/20/2016 12:00:00 AM,PASS,,,,
30018,LITTLE DIPPER HOT POT,101 GIBBS ST,ROCKVILLE,MD,20850,39.0854,-77.152,"(39.0854, -77.152)",30018_2017-01-12,01/12/2017 12:00:00 AM,PASS,initial,,,
649,SILVER SPRING COURTYARD BY MARRIOTT,12521 PROSPERITY DR.,SILVER SPRING,MD,20904,39.0611,-76.9601,"(39.0611, -76.9601)",649_2017-01-18,01/18/2017 12:00:00 AM,PASS,routine,,,
2161,ROYAL BAGEL BAKERY,19725 GERMANTOWN RD.,GERMANTOWN,MD,20874,39.179,-77.2663,"(39.179, -77.2663)",2161_2016-04-28,04/28/2016 12:00:00 AM,PASS,followup,2161_2016-04-28_RodentandInsects,Standard not met: Rodent and Insects,false
20736,JOHNSON'S FLORIST & GARDEN CENTERS,10313 KENSINGTON PKWY.,KENSINGTON,MD,20895,39.0254,-77.0714,"(39.0254, -77.0714)",20736_2016-04-29,04/29/2016 12:00:00 AM,PASS,routine,,,
20285,REDWOOD RESTAURANT,7121 BETHESDA LN,BETHESDA,MD,20814,38.9813,-77.0979,"(38.9813, -77.0979)",20285_2016-09-19,09/19/2016 12:00:00 AM,PASS,routine,20285_2016-09-19_TransFatBan,Standard not met: Trans Fat Ban,false
11560,MCDONALD'S - UNIVERSITY BLVD,"106 UNIVERSITY BLVD.,W.",SILVER SPRING,MD,20901,39.0206,-77.0139,"(39.0206, -77.0139)",11560_2016-05-23,05/23/2016 12:00:00 AM,PASS,initial,,,
21219,"GLOBAL INTERNATIONAL GROCERY, LLC.",10216 NEW HAMPSHIRE AVE.,SILVER SPRING,MD,20903,39.0226,-76.9784,"(39.0226, -76.9784)",21219_2016-04-29,04/29/2016 12:00:00 AM,PASS,routine,,,
19304,NORTHWOOD H.S. ATHLETIC CLUB,"919 UNIVERSITY BLVD.,W",SILVER SPRING,MD,20901,39.0357,-77.023,"(39.0357, -77.023)",19304_2015-04-14,04/14/2015 12:00:00 AM,PASS,routine,,,
20808,WELLBEING CAFE,101 MONROE ST,ROCKVILLE,MD,20850,39.083,-77.1494,"(39.083, -77.1494)",20808_2016-06-29,06/29/2016 12:00:00 AM,PASS,routine,20808_2016-06-29_ColdHoldingTemperature(C),Standard not met: Cold Holding Temperature (C),true
29604,AREPAS PUES,8555-B FENTON ST,SILVER SPRING,MD,20910,38.9976,-77.0262,"(38.9976, -77.0262)",29604_2016-03-17,03/17/2016 12:00:00 AM,PASS,followup,,,
27698,TOWN CENTER SUNOCO,19738 GERMANTOWN RD,GERMANTOWN,MD,20874,39.1796,-77.2657,"(39.1796, -77.2657)",27698_2016-04-27,04/27/2016 12:00:00 AM,PASS,routine,27698_2016-04-27_HotandColdRunningWaterProvided(C),Standard not met: Hot and Cold Running Water Provided (C),true
1691,MEDSTAR MONTGOMERY MEDICAL CENTER-HOSP,18101 PRINCE PHILIP DR.,OLNEY,MD,20832,39.1539,-77.054,"(39.1539, -77.054)",1691_2016-04-29,04/29/2016 12:00:00 AM,PASS,routine,1691_2016-04-29_ColdHoldingTemperature(C),Standard not met: Cold Holding Temperature (C),true
29694,EATHAI RESTAURANT,4011 NORBECK RD UNIT E,ROCKVILLE,MD,20853,39.1101,-77.0778,"(39.1101, -77.0778)",29694_2016-09-14,09/14/2016 12:00:00 AM,PASS,routine,29694_2016-09-14_RodentandInsects,Standard not met: Rodent and Insects,false
17548,JERRY'S SUBS & PIZZA,14933 SHADY GROVE RD.,ROCKVILLE,MD,20850,39.0971,-77.1916,"(39.0971, -77.1916)",17548_2016-09-20,09/20/2016 12:00:00 AM,PASS,routine,17548_2016-09-20_ColdHoldingTemperature(C),Standard not met: Cold Holding Temperature (C),true
19518,SUB- URBAN TRADING CO.,10301 KENSINGTON PKWY,KENSINGTON,MD,20895,39.0254,-77.0709,"(39.0254, -77.0709)",19518_2016-04-29,04/29/2016 12:00:00 AM,PASS,routine,,,
26880,SWEET FROG,20940-C FREDERICK RD,GERMANTOWN,MD,20876,39.2036,-77.2478,"(39.2036, -77.2478)",26880_2016-05-01,05/01/2016 12:00:00 AM,PASS,routine,,,
26663,HOUSE OF FOONG LIN,4613 WILLOW LANE,CHEVY CHASE,MD,20815,38.9816,-77.0921,"(38.9816, -77.0921)",26663_2016-04-29,04/29/2016 12:00:00 AM,PASS,complaint,,,
2125,ROLLING TERRACE ELEMENTARY,705 BAYFIELD ST.,TAKOMA PARK,MD,20912,38.9952,-76.9973,"(38.9952, -76.9973)",2125_2016-04-29,04/29/2016 12:00:00 AM,PASS,routine,,,
27620,POTBELLY #340,20940 FREDERICK RD,GERMANTOWN,MD,20876,39.2036,-77.2474,"(39.2036, -77.2474)",27620_2016-05-01,05/01/2016 12:00:00 AM,PASS,routine,,,
30055,WEIS MARKET #288,16567 SOUTH FREDERICK RD,GAITHERSBURG,MD,20877,39.1278,-77.1836,"(39.1278, -77.1836)",30055_2016-09-20,09/20/2016 12:00:00 AM,PASS,initial,,,
22483,JIN JIANG GARDEN,26131 RIDGE RD.,DAMASCUS,MD,20872,39.2863,-77.207,"(39.2863, -77.207)",22483_2016-09-19,09/19/2016 12:00:00 AM,PASS,routine,,,
28319,YOGI CASTLE,12274 E ROCKVILLE PK,ROCKVILLE,MD,20852,39.0579,-77.1231,"(39.0579, -77.1231)",28319_2016-06-29,06/29/2016 12:00:00 AM,PASS,routine,,,
29455,URBAN CRAWFISH,670 QUINCE ORCHARD RD,GAITHERSBURG,MD,20878,39.141,-77.223,"(39.141, -77.223)",29455_2017-01-19,01/19/2017 12:00:00 AM,PASS,routine,,,
29607,DARNESTOWN SUNOCO,12301 DARNESTOWN RD,GAITHERSBURG,MD,20878,,,,29607_2016-04-22,04/22/2016 12:00:00 AM,PASS,followup,,,
22246,CHICKEN BASKET,11435 GEORGIA AVE.,SILVER SPRING,MD,20902,39.0426,-77.0516,"(39.0426, -77.0516)",22246_2016-09-19,09/19/2016 12:00:00 AM,PASS,followup,22246_2016-09-19_ColdHoldingTemperature(C),Standard not met: Cold Holding Temperature (C),true
11443,BROOKE GROVE REHAB & NURSING,18131 SLADE SCHOOL RD.,SANDY SPRING,MD,20860,39.1546,-77.0398,"(39.1546, -77.0398)",11443_2016-04-29,04/29/2016 12:00:00 AM,PASS,routine,,,
28032,LE VIENUX LOGIS,7925 OLD GEORGETOWN RD,BETHESDA,MD,20814,38.9889,-77.1007,"(38.9889, -77.1007)",28032_2017-01-20,01/20/2017 12:00:00 AM,PASS,routine,28032_2017-01-20_FoodProtectedfromContamination(C),Standard not met: Food Protected from Contamination (C),true
22584,CHRIST EVANGELICAL LUTHERAN CHURCH,8011 OLD GEORGETOWN RD.,BETHESDA,MD,20814,38.9896,-77.1017,"(38.9896, -77.1017)",22584_2017-01-19,01/19/2017 12:00:00 AM,PASS,routine,,,
28032,LE VIENUX LOGIS,7925 OLD GEORGETOWN RD,BETHESDA,MD,20814,38.9889,-77.1007,"(38.9889, -77.1007)",28032_2015-10-08,10/08/2015 12:00:00 AM,PASS,routine,,,
28803,SAFEWAY #2797,3333 SPARTAN RD,OLNEY,MD,20832,39.1504,-77.0646,"(39.1504, -77.0646)",28803_2016-09-15,09/15/2016 12:00:00 AM,PASS,routine,28803_2016-09-15_RodentandInsects,Standard not met: Rodent and Insects,false
17336,WHEATON GLENMONT POOL SNACK BAR,12621 DALEWOOD DR.,SILVER SPRING,MD,20906,39.0606,-77.0644,"(39.0606, -77.0644)",17336_2015-05-21,05/21/2015 12:00:00 AM,PASS,routine,,,
19012,TOMATILLO MEXICAN GRILL,2232 VEIRS MILL RD,ROCKVILLE,MD,20851,39.0753,-77.1141,"(39.0753, -77.1141)",19012_2016-09-19,09/19/2016 12:00:00 AM,PASS,routine,,,
19148,GRILL KABOB,7101 DEMOCRACY BLVD.,BETHESDA,MD,20817,39.0233,-77.1486,"(39.0233, -77.1486)",19148_2015-06-02,06/02/2015 12:00:00 AM,PASS,routine,,,
19298,TALK OF THE TOWN,14650 SOUTHLAWN LANE,ROCKVILLE,MD,20850,39.0957,-77.1401,"(39.0957, -77.1401)",19298_2016-02-04,02/04/2016 12:00:00 AM,PASS,routine,,,
19148,GRILL KABOB,7101 DEMOCRACY BLVD.,BETHESDA,MD,20817,39.0233,-77.1486,"(39.0233, -77.1486)",19148_2015-10-02,10/02/2015 12:00:00 AM,PASS,routine,,,
18628,SUBWAY #22916,12193 DARNESTOWN RD.,GAITHERSBURG,MD,20878,39.1179,-77.2524,"(39.1179, -77.2524)",18628_2017-01-19,01/19/2017 12:00:00 AM,PASS,routine,,,
27406,WILDWOOD MANOR SWIMMING POOL ASSOCIATION,10235 HATHERLEIGH DR,BETHESDA,MD,20814,39.0249,-77.1162,"(39.0249, -77.1162)",27406_2016-07-07,07/07/2016 12:00:00 AM,PASS,routine,,,
17680,SPICE LANKA,17517 REDLAND RD.,DERWOOD,MD,20855,39.1441,-77.1439,"(39.1441, -77.1439)",17680_2016-09-14,09/14/2016 12:00:00 AM,PASS,routine,17680_2016-09-14_RodentandInsects,Standard not met: Rodent and Insects,false
30229,GERMANTOWN W EXPRESS,20510 FREDERICK RD,GERMANTOWN,MD,20876,39.1923,-77.2434,"(39.1923, -77.2434)",30229_2017-01-23,01/23/2017 12:00:00 AM,PASS,initial,,,
11586,BURGER KING #13488,12265 VEIRS MILL RD.,SILVER SPRING,MD,20906,39.0577,-77.0847,"(39.0577, -77.0847)",11586_2017-01-23,01/23/2017 12:00:00 AM,PASS,routine,11586_2017-01-23_ColdHoldingTemperature(C),Standard not met: Cold Holding Temperature (C),true
